"website","url","latitude","longitude","country","province","city","address","road_margin","schedule","company","sales_type","fuel_type","fuel_price","last_update_date","insert_date"
dieselogasolina.com,https://www.dieselogasolina.com/Buscador/Ficha/6158,28.954556,-13.632278,ES,PALMAS (LAS),TIAS,"CARRETERA CR LZ-2 ARRECIFE-YAIZA,P.K.6,7KM KM. 6,7",I,L-D: 07:00-22:00,SPL,P,SP95,1.336,2023-11-19,2023-11-22
dieselogasolina.com,https://www.dieselogasolina.com/Buscador/Ficha/9632,43.278472,-1.98425,ES,GIPUZKOA,HERNANI,AUTOPISTA AP-8 KM. 22,I,L-D: 24H,REPSOL,P,GNC,1.159,2023-11-21,2023-11-22
dieselogasolina.com,https://www.dieselogasolina.com/Buscador/Ficha/8934,38.559639,-6.076389,ES,BADAJOZ,HORNACHOS,CTRA. PUEBLA DE LA REINA S/N,D,L-D: 24H,SDAD.COOP.LIMT. DE HORNACHOS,A,GB,1.165,2023-11-19,2023-11-22
dieselogasolina.com,https://www.dieselogasolina.com/Buscador/Ficha/18630,41.635083,-4.784389,ES,VALLADOLID,ZARATAN,"AVENIDA RAMON Y CAJAL, S/N",D,L-D: 24H,DST,A,GA,1.479,2023-11-19,2023-11-22
dieselogasolina.com,https://www.dieselogasolina.com/Buscador/Ficha/12122,37.507417,-6.074583,ES,SEVILLA,GUILLENA,CARRETERA N-630 KM. 798,I,L-D: 06:00-22:00,REPSOL,P,SP98,1.789,2023-11-21,2023-11-22
dieselogasolina.com,https://www.dieselogasolina.com/Buscador/Ficha/5129,40.376694,-3.8725,ES,MADRID,VILLAVICIOSA DE ODON,"CARRETERA M-50 KM. 66,5",D,L-D: 24H,REPSOL,P,SP95,1.659,2023-11-21,2023-11-22
dieselogasolina.com,https://www.dieselogasolina.com/Buscador/Ficha/19225,39.289361,-0.514444,ES,VALENCIA / VALÈNCIA,ALFARP,"CARRETERA CATADAU-BENIFAIO KM. 5,8",D,L-D: 24H,BAR / E.S. ALTAMAR J.A.,P,GA,1.499,2023-11-14,2023-11-22
dieselogasolina.com,https://www.dieselogasolina.com/Buscador/Ficha/18248,40.445194,-3.68475,ES,MADRID,MADRID,"PLAZA REPUBLICA ARGENTINA, 8",D,L-V: 07:00-21:45; S: 08:15-13:45,REPSOL,P,SP95,1.679,2023-11-21,2023-11-22
dieselogasolina.com,https://www.dieselogasolina.com/Buscador/Ficha/15065,39.563583,-1.212861,ES,VALENCIA / VALÈNCIA,UTIEL,CARRETERA N-3 KM. 262,D,L-V: 06:00-22:00,REPSOL,P,GLP,1.185,2023-11-20,2023-11-22
dieselogasolina.com,https://www.dieselogasolina.com/Buscador/Ficha/11601,39.847806,-0.493972,ES,CASTELLÓN / CASTELLÓ,SEGORBE,"AVENIDA ESPAÑA, 181",N,L-V: 06:00-22:00; S-D: 07:00-22:00,GEST,P,GA,1.619,2023-11-19,2023-11-22
dieselogasolina.com,https://www.dieselogasolina.com/Buscador/Ficha/7733,38.90225,-0.419972,ES,VALENCIA / VALÈNCIA,POBLA DEL DUC (LA),"CARRETERA VV-1022 KM. 9,2",I,L-V: 06:00-22:00; S-D: 24H,CEPSA,P,GA+,1.739,2023-11-20,2023-11-22
dieselogasolina.com,https://www.dieselogasolina.com/Buscador/Ficha/5921,42.072667,-7.732,ES,OURENSE,XINZO DE LIMIA,"CARRETERA CRTA. N-525, KM.199.4 KM. 199,4",I,L-D: 07:00-23:00,REPSOL,P,GA,1.649,2023-11-21,2023-11-22
dieselogasolina.com,https://www.dieselogasolina.com/Buscador/Ficha/17929,37.214917,-3.591056,ES,GRANADA,JUN,CR CTRA 7 GRANADA-ALFACAR S/N,N,L: 07:00-23:00,BP AUTO-GREEN (JUN),P,SP95,1.609,2023-11-19,2023-11-22
dieselogasolina.com,https://www.dieselogasolina.com/Buscador/Ficha/8151,41.761111,-1.149389,ES,ZARAGOZA,ALAGON,AUTOVIA A-68 KM. 265,I,L-D: 06:00-22:30,REPSOL,P,GA,1.619,2023-11-21,2023-11-22
dieselogasolina.com,https://www.dieselogasolina.com/Buscador/Ficha/1543,39.595861,2.637917,ES,BALEARS (ILLES),PALMA,"CAMINO REIS, S/N",I,L-S: 06:00-23:59; D: 06:00-22:00,REPSOL,P,SP95,1.679,2023-11-21,2023-11-22
dieselogasolina.com,https://www.dieselogasolina.com/Buscador/Ficha/18439,37.311583,-6.242,ES,SEVILLA,AZNALCAZAR,CARRETERA A-473 KM. 1,N,L-S: 06:00-23:00; D: 08:00-23:00,AGLA AZNALCAZAR,P,GA+,1.579,2023-11-19,2023-11-22
dieselogasolina.com,https://www.dieselogasolina.com/Buscador/Ficha/18241,40.298556,-3.823139,ES,MADRID,FUENLABRADA,"CALLE ENEBRO, 17",D,L-D: 24H,PLENOIL,P,SP95,1.479,2023-11-19,2023-11-22
dieselogasolina.com,https://www.dieselogasolina.com/Buscador/Ficha/15991,41.214861,-2.292056,ES,SORIA,ARCOS DE JALON,"POLIGONO POLIGONO INDUSTRIAL LA MALITA-PARC. 15 Y 32, 167",D,L-V: 24H; S-D: 00:00-16:00,GHC SORIA,P,GA,1.359,2023-11-20,2023-11-22
dieselogasolina.com,https://www.dieselogasolina.com/Buscador/Ficha/12783,28.079333,-16.737889,ES,SANTA CRUZ DE TENERIFE,FAÑABE,"URBANIZACIÓN SAN EUGENIO, PLAYA DE LAS AMERICAS",N,L-D: 08:00-17:30,DISA,P,SP95,1.373,2023-11-20,2023-11-22
dieselogasolina.com,https://www.dieselogasolina.com/Buscador/Ficha/7766,39.478722,-0.569667,ES,VALENCIA / VALÈNCIA,RIBA-ROJA DE TURIA,"CALLE MALLORCA, S,N",N,L-D: 24H,GALP,P,SP98,1.589,2023-11-20,2023-11-22
dieselogasolina.com,https://www.dieselogasolina.com/Buscador/Ficha/7855,39.462944,-0.354472,ES,VALENCIA / VALÈNCIA,VALENCIA,"CL BALEARES, 20",D,L-D: 24H,REPSOL,P,GA,1.629,2023-11-21,2023-11-22
dieselogasolina.com,https://www.dieselogasolina.com/Buscador/Ficha/19944,38.234972,-1.700306,ES,MURCIA,CALASPARRA,"CALLE TENIENTE FLOMESTA, 86",D,L: 06:00-22:00,BP,P,SP98,1.761,2023-11-21,2023-11-22
dieselogasolina.com,https://www.dieselogasolina.com/Buscador/Ficha/21086,37.307306,-6.732889,ES,HUELVA,LUCENA DEL PUERTO,"CALLE CAMINO DE LAS COLMENILLAS, S/N",D,L: 06:00-22:00,COSTAOIL,P,GB,1.093,2023-11-19,2023-11-22
dieselogasolina.com,https://www.dieselogasolina.com/Buscador/Ficha/18591,43.164944,-2.620333,ES,BIZKAIA,DURANGO,CARRETERA ELORRIO KM. S/N,N,L-S: 06:00-22:20; D: 08:00-22:00,ALCAMPO,P,GA,1.425,2023-11-21,2023-11-22
dieselogasolina.com,https://www.dieselogasolina.com/Buscador/Ficha/12821,41.677167,-0.957889,ES,ZARAGOZA,UTEBO,AUTOPISTA A-68 KM. 246,D,L-V: 07:00-21:00; S: 08:00-15:00,REPSOL,P,GA,1.629,2023-11-21,2023-11-22
dieselogasolina.com,https://www.dieselogasolina.com/Buscador/Ficha/13318,28.125444,-16.740778,ES,SANTA CRUZ DE TENERIFE,ADEJE,"PG IND. BARRANCO LAS TORRES, P7-S9, S/N",N,L-D: 24H,BP LA ATALAYA,P,GA+,1.392,2023-11-19,2023-11-22
dieselogasolina.com,https://www.dieselogasolina.com/Buscador/Ficha/12550,38.617861,-1.109361,ES,MURCIA,YECLA,CARRETERA MU-424 KM. 31,I,L-D: 06:00-22:00,REPSOL,P,GA+,1.679,2023-11-21,2023-11-22
dieselogasolina.com,https://www.dieselogasolina.com/Buscador/Ficha/16377,36.646944,-4.676611,ES,MÁLAGA,ALHAURIN EL GRANDE,"CARRER COMARCAL 344 KM 72.200, 72200",D,L-D: 24H,BP LA PEÑITA,P,GB,1.379,2023-11-20,2023-11-22
dieselogasolina.com,https://www.dieselogasolina.com/Buscador/Ficha/7264,39.893917,-4.453944,ES,TOLEDO,CARPIO DE TAJO (EL),"CM-4000 KM P.K.39,2",N,L-D: 24H,FARRUCO S.A.,P,GA,1.537,2023-11-20,2023-11-22
dieselogasolina.com,https://www.dieselogasolina.com/Buscador/Ficha/11248,39.463972,-0.345361,ES,VALENCIA / VALÈNCIA,VALENCIA,AV DEL PUERTO 147,N,L-D: 24H,SHELL,P,SP98,1.779,2023-11-20,2023-11-22
dieselogasolina.com,https://www.dieselogasolina.com/Buscador/Ficha/15031,42.069626,-8.631987,ES,PONTEVEDRA,PUENTE NUEVO,"CTRA. NACIONAL 550, KM. 167,2",D,L-D: 07:00-23:00,SERTUY,P,GA,1.56,2023-11-19,2023-11-22
dieselogasolina.com,https://www.dieselogasolina.com/Buscador/Ficha/17885,40.470556,-3.412444,ES,MADRID,ALCALA DE HENARES,"CARRETERA ANTIGUA N-II KM. 26,00",N,L-D: 06:00-22:00,BP RIO CORVO,P,SP95,1.659,2023-11-18,2023-11-22
dieselogasolina.com,https://www.dieselogasolina.com/Buscador/Ficha/12759,42.526056,-7.527194,ES,LUGO,MONFORTE DE LEMOS,"CL CARRETERA DE CHANTADA, S.N.",I,L-D: 24H,REPSOL,P,GA,1.599,2023-11-20,2023-11-22
dieselogasolina.com,https://www.dieselogasolina.com/Buscador/Ficha/20308,37.690056,-5.449389,ES,SEVILLA,PRIORATO (EL),"CARRETERA A-431 KM. 66,2",D,L: 06:00-22:00,ES LOS MONOS,P,SP95,1.629,2023-11-19,2023-11-22
dieselogasolina.com,https://www.dieselogasolina.com/Buscador/Ficha/469,42.878694,-2.714472,ES,ARABA/ÁLAVA,LOPIDANA,"CR N-1, 350,5",I,L-D: 24H,REPSOL,P,GLP,0.919,2023-11-21,2023-11-22
dieselogasolina.com,https://www.dieselogasolina.com/Buscador/Ficha/2943,37.663083,-4.931278,ES,CÓRDOBA,CARLOTA (LA),"CARRETERA DE LA PAZ KM. 1,5",N,L-D: 24H,LA LAGUNILLA,P,SP95,1.569,2023-11-20,2023-11-22
dieselogasolina.com,https://www.dieselogasolina.com/Buscador/Ficha/13802,39.964111,-4.937278,ES,TOLEDO,TALAVERA DE LA REINA,"CALLE CERAMICA, LA, 232",D,L-V: 08:00-20:00; S: 08:00-13:30,U.S.TORREHIERRO,P,SP95,1.509,2023-11-19,2023-11-22
dieselogasolina.com,https://www.dieselogasolina.com/Buscador/Ficha/4025,41.939611,-0.369333,ES,HUESCA,GRAÑEN,"AVENIDA RAMON Y CAJAL, 4",N,L-V: 07:30-21:00; S: 07:30-14:00,REPSOL,P,GB,1.219,2023-11-20,2023-11-22
dieselogasolina.com,https://www.dieselogasolina.com/Buscador/Ficha/12288,28.193861,-16.82225,ES,SANTA CRUZ DE TENERIFE,PLAYA DE SAN JUAN,CARRETERA CARRETERA GENERAL TF-623 KM. 13,N,L-D: 06:00-22:00,DISA PLAYA SAN JUAN,P,GA+,1.459,2023-11-19,2023-11-22
dieselogasolina.com,https://www.dieselogasolina.com/Buscador/Ficha/5491,37.769,-1.068806,ES,MURCIA,JIMENADO,AUTOVIA A-30 KM. 172,I,L-D: 24H,REPSOL,P,GA,1.609,2023-11-19,2023-11-22
dieselogasolina.com,https://www.dieselogasolina.com/Buscador/Ficha/9564,38.9745,-3.958361,ES,CIUDAD REAL,CIUDAD REAL,"CARRETERA N-430 KM. 304,42",I,L-V: 07:00-22:00; S-D: 08:00-20:00,REPSOL,P,SP98,1.719,2023-11-21,2023-11-22
dieselogasolina.com,https://www.dieselogasolina.com/Buscador/Ficha/13007,37.756972,-1.483222,ES,MURCIA,TOTANA,CARRETERA MAZARRON KM. 2,D,L-S: 08:00-22:00,COATO,P,GA,1.55,2023-11-19,2023-11-22
dieselogasolina.com,https://www.dieselogasolina.com/Buscador/Ficha/4793,40.332306,-3.761944,ES,MADRID,LEGANES,"AVENIDA FUENLABRADA, 16",D,L-D: 24H,BP,P,SP95,1.529,2023-11-21,2023-11-22
dieselogasolina.com,https://www.dieselogasolina.com/Buscador/Ficha/8880,41.519389,-5.757833,ES,ZAMORA,ZAMORA,"AVENIDA CARDENAL CISNEROS, S/N",D,L-D: 24H,VALCARCE,P,GA,1.459,2023-11-20,2023-11-22
dieselogasolina.com,https://www.dieselogasolina.com/Buscador/Ficha/1336,38.381611,-6.585944,ES,BADAJOZ,BURGUILLOS DEL CERRO,"CR BA-4311 8,5",I,L-S: 08:00-20:00,CAMPSA,P,GA,1.579,2023-11-21,2023-11-22
dieselogasolina.com,https://www.dieselogasolina.com/Buscador/Ficha/2314,40.063417,-6.651056,ES,CÁCERES,MORALEJA,"CARRETERA EX-108 KM. 111,7",D,L-D: 06:00-22:00,CEPSA,P,GB,1.289,2023-11-21,2023-11-22
dieselogasolina.com,https://www.dieselogasolina.com/Buscador/Ficha/321,42.167611,-1.593083,ES,NAVARRA,ARGUEDAS,"NA-134 KM 13,6",I,L-V: 08:00-20:00; S: 08:00-14:00,E.S.LA RECTA,P,GA,1.529,2023-11-20,2023-11-22
dieselogasolina.com,https://www.dieselogasolina.com/Buscador/Ficha/2612,43.464056,-3.875944,ES,CANTABRIA,SOTO DE LA MARINA,"CALLE JOSE MARIA PEREDA, 6",I,L-D: 24H,SHELL,P,SP98,1.729,2023-11-19,2023-11-22
dieselogasolina.com,https://www.dieselogasolina.com/Buscador/Ficha/14380,38.402472,-1.046806,ES,ALICANTE,PINOSO,"CARRETERA DE JUMILLA KM. 53,8",D,L-D: 06:00-22:00,REPSOL,P,SP95,1.635,2023-11-21,2023-11-22
dieselogasolina.com,https://www.dieselogasolina.com/Buscador/Ficha/199,42.777528,-8.406444,ES,CORUÑA (A),PONTE ULLA,CARRETERA N-525 KM. 322,D,L-D: 24H,PONTEULLA,P,SP98,1.839,2023-11-20,2023-11-22
dieselogasolina.com,https://www.dieselogasolina.com/Buscador/Ficha/14581,42.005889,1.294306,ES,LLEIDA,BASSELLA,CARRETERA C 14 KM. 134,N,L-D: 06:00-23:00,REPSOL,P,GLP,1.019,2023-11-19,2023-11-22
dieselogasolina.com,https://www.dieselogasolina.com/Buscador/Ficha/18945,43.284833,-2.029083,ES,GIPUZKOA,USURBIL,"AUTOPISTA AP-8 (MRG.IZDO.) KM. 27,1",I,L-D: 24H,CEPSA,P,GA,1.675,2023-11-21,2023-11-22
dieselogasolina.com,https://www.dieselogasolina.com/Buscador/Ficha/14047,38.701889,-0.76775,ES,ALICANTE,BENEIXAMA,"CALLE DR. SILVESTRE,",N,L-D: 24H,COOPERATIVA DIVINA AURORA,P,GA,1.609,2023-11-12,2023-11-22
dieselogasolina.com,https://www.dieselogasolina.com/Buscador/Ficha/21603,28.108222,-15.454667,ES,PALMAS (LAS),PALMAS DE GRAN CANARIA (LAS),"CALLE ARRECIFE, 33",D,L-D: 24H,H2EXAGON LAS TORRES,P,SP95,1.159,2023-11-19,2023-11-22
dieselogasolina.com,https://www.dieselogasolina.com/Buscador/Ficha/17406,42.660972,-2.034167,ES,NAVARRA,ESTELLA O LIZARRA,"CALLE CARLOS VII, 28",N,L-D: 08:00-21:30,ALCAMPO,P,GA,1.54,2023-11-19,2023-11-22
dieselogasolina.com,https://www.dieselogasolina.com/Buscador/Ficha/5116,40.279472,-4.301667,ES,MADRID,VILLA DEL PRADO,"CARRETERA M-507 KM. 27,5",I,L-D: 07:00-23:00,CEPSA,P,GA,1.639,2023-11-21,2023-11-22
dieselogasolina.com,https://www.dieselogasolina.com/Buscador/Ficha/2275,39.464917,-6.296722,ES,CÁCERES,CACERES,"CARRETERA NACIONAL 521 KM. 38,130",I,L-D: 06:00-22:00,GALP,P,GA,1.609,2023-11-21,2023-11-22
dieselogasolina.com,https://www.dieselogasolina.com/Buscador/Ficha/14396,39.153139,-4.162472,ES,CIUDAD REAL,PORZUNA,"CALLE TOLEDO,, 50",I,L-S: 07:00-22:00; D: 08:00-15:00,REPSOL,P,GA+,1.719,2023-11-19,2023-11-22
dieselogasolina.com,https://www.dieselogasolina.com/Buscador/Ficha/1345,38.919556,-5.67825,ES,BADAJOZ,CORONADA (LA),CARRETERA EX-104 KM. 11,I,L-S: 06:00-22:00; D: 07:00-22:00,PK 11,P,SP98,1.728,2023-11-17,2023-11-22
dieselogasolina.com,https://www.dieselogasolina.com/Buscador/Ficha/789,38.738444,-0.009028,ES,ALICANTE,JALON,"AVDA. GENERALITAT VALENCIANA, 4",D,L: 06:00-22:00,A.ESTELA,P,GB,1.359,2023-11-21,2023-11-22
dieselogasolina.com,https://www.dieselogasolina.com/Buscador/Ficha/4805,40.373111,-3.725611,ES,MADRID,MADRID,"AVENIDA DE LOS POBLADOS, 18",I,L-D: 24H,CEPSA,P,GLP,0.919,2023-11-21,2023-11-22
dieselogasolina.com,https://www.dieselogasolina.com/Buscador/Ficha/4931,40.497639,-3.662611,ES,MADRID,MADRID,"CALLE MARIA DE PORTUGAL, 15",N,L-D: 24H,CEPSA,P,SP95,1.651,2023-11-19,2023-11-22
dieselogasolina.com,https://www.dieselogasolina.com/Buscador/Ficha/19231,43.34275,-4.029833,ES,CANTABRIA,TORRELAVEGA,"BARRIO SIERRAPANDO, 371",N,L-V: 06:30-22:00; S: 09:00-21:30; D: 10:00-16:00,NIEVES,P,GA,1.433,2023-11-19,2023-11-22
dieselogasolina.com,https://www.dieselogasolina.com/Buscador/Ficha/9898,42.688833,-2.95275,ES,BURGOS,MIRANDA DE EBRO,CARRETERA MADRID-IRUN KM. 318,I,L-V: 08:00-20:00,REPSOL,P,GA+,1.709,2023-11-21,2023-11-22
dieselogasolina.com,https://www.dieselogasolina.com/Buscador/Ficha/21194,37.996194,-1.028361,ES,MURCIA,HUERTA Y CAMPO DE LOS RAMOS,"CARRETERA SAN JAVIER KM. 10,4",N,L-D: 06:00-22:00,CEPSA LOS RAMOS,P,GA+,1.689,2023-11-20,2023-11-22
dieselogasolina.com,https://www.dieselogasolina.com/Buscador/Ficha/17831,40.258611,-3.762667,ES,MADRID,FUENLABRADA,"CARRETERA A-42 KM. 18,7",I,L-D: 24H,REPSOL,P,GA+,1.749,2023-11-21,2023-11-22
dieselogasolina.com,https://www.dieselogasolina.com/Buscador/Ficha/16805,41.626972,-5.173278,ES,VALLADOLID,MOTA DEL MARQUES,AUTOVIA A-6 KM. 202,D,L-D: 24H,REPSOL,P,GA,1.615,2023-11-21,2023-11-22
dieselogasolina.com,https://www.dieselogasolina.com/Buscador/Ficha/818,38.82825,0.01475,ES,ALICANTE,ONDARA,CARRETERA N-332 KM. 198,I,L-D: 06:00-22:00,REPSOL,P,SP95,1.699,2023-11-21,2023-11-22
dieselogasolina.com,https://www.dieselogasolina.com/Buscador/Ficha/17905,38.868833,-6.954972,ES,BADAJOZ,BADAJOZ,"CARRETERA N-432 KM. 0,650",N,L-D: 24H,SHELL,P,GA,1.469,2023-11-20,2023-11-22
dieselogasolina.com,https://www.dieselogasolina.com/Buscador/Ficha/12304,40.669639,-4.085111,ES,MADRID,GUADARRAMA,CARRETERA N-VI KM. 48,N,L-D: 24H,BP GUADARRAMA,P,GA,1.639,2023-11-21,2023-11-22
dieselogasolina.com,https://www.dieselogasolina.com/Buscador/Ficha/14306,42.221,2.82375,ES,GIRONA,CABANELLES,CARRETERA N-260 KM. 50,N,L-D: 06:00-22:00,CEPSA,P,SP95,1.729,2023-11-03,2023-11-22
dieselogasolina.com,https://www.dieselogasolina.com/Buscador/Ficha/4583,42.805139,-7.618056,ES,LUGO,PORTOMARIN,"CARRETERA C-535 KM. 55,000",I,L-S: 08:00-14:00 y 16:00-22:00,CAMPA,P,SP95,1.699,2023-11-12,2023-11-22
dieselogasolina.com,https://www.dieselogasolina.com/Buscador/Ficha/11838,36.677889,-6.144944,ES,CÁDIZ,JEREZ DE LA FRONTERA,"ROTONDA CUATRO CAMINOS, S/N",D,L-V: 06:00-22:00; S: 08:00-16:00; D: 00:00-00:01,REPSOL,P,SP95,1.589,2023-11-21,2023-11-22
dieselogasolina.com,https://www.dieselogasolina.com/Buscador/Ficha/9163,41.334778,-5.085111,ES,VALLADOLID,NAVA DEL REY,"LUIS SALVADOR CARMONA, S/N",N,L-V: 08:30-13:30 y 15:00-18:00,NO TIENE,R,GB,1.13,2023-11-19,2023-11-22
dieselogasolina.com,https://www.dieselogasolina.com/Buscador/Ficha/18055,42.124972,3.123222,ES,GIRONA,ESCALA (L'),"CALLE CLOSA D'EN LLOP, 2",D,L: 24H,REPSOL L'ESCALA,P,GA+,1.679,2023-11-21,2023-11-22
dieselogasolina.com,https://www.dieselogasolina.com/Buscador/Ficha/5782,42.762889,-1.633722,ES,NAVARRA,NOAIN,"CALLE REAL, 66",D,L-D: 06:00-22:00,CEPSA,P,GA,1.655,2023-11-21,2023-11-22
dieselogasolina.com,https://www.dieselogasolina.com/Buscador/Ficha/11095,37.969778,-6.314333,ES,HUELVA,CALA,"AVENIDA CONSTITUCION, 1",D,L-S: 07:00-22:00; D: 08:00-22:00,AGLA,P,SP95,1.679,2023-11-19,2023-11-22
dieselogasolina.com,https://www.dieselogasolina.com/Buscador/Ficha/9741,42.804194,-7.109722,ES,LUGO,NOGAIS (AS),CARRETERA N-VI KM. 447,N,L-D: 08:30-21:00,G ESTACIONES DE SERVICIO,P,GB,1.399,2023-11-19,2023-11-22
dieselogasolina.com,https://www.dieselogasolina.com/Buscador/Ficha/9961,39.205194,-2.708528,ES,ALBACETE,VILLARROBLEDO,AUTOVIA A-43 KM. 390,I,L-D: 06:00-23:59,CEPSA,P,SP95,1.614,2023-11-21,2023-11-22
dieselogasolina.com,https://www.dieselogasolina.com/Buscador/Ficha/3776,40.658028,-3.119528,ES,GUADALAJARA,TARACENA,CARRETERA N II KM. 61,N,L-D: 07:00-23:00,GALP,P,GA,1.614,2023-11-21,2023-11-22
dieselogasolina.com,https://www.dieselogasolina.com/Buscador/Ficha/4887,40.383833,-3.723889,ES,MADRID,MADRID,"PLAZA SETUBAL, 4",D,L-V: 07:00-22:00; S: 08:00-21:00,REPSOL,P,GA+,1.699,2023-11-21,2023-11-22
dieselogasolina.com,https://www.dieselogasolina.com/Buscador/Ficha/21324,37.407722,-4.50025,ES,CÓRDOBA,LUCENA,"CALLE CONCHA LAGO, S/N",D,L-D: 24H,PLENOIL,P,GA,1.379,2023-11-20,2023-11-22
dieselogasolina.com,https://www.dieselogasolina.com/Buscador/Ficha/10428,36.75225,-3.882778,ES,MÁLAGA,NERJA,"MA-105 KM 0,3",D,L-D: 24H,BP,P,SP98,1.799,2023-11-20,2023-11-22
dieselogasolina.com,https://www.dieselogasolina.com/Buscador/Ficha/1732,41.514889,2.413139,ES,BARCELONA,CABRERA DE MAR,CARRETERA N-2 KM. 643,D,L-D: 05:00-23:00,REPSOL,P,GA+,1.719,2023-11-21,2023-11-22
dieselogasolina.com,https://www.dieselogasolina.com/Buscador/Ficha/3570,37.598194,-2.706889,ES,GRANADA,BENAMAUREL,"CARRETERA BENAMAUREL KM. 13,500",D,L: 07:00-22:00,CEPSA,P,GB,1.339,2023-11-19,2023-11-22
dieselogasolina.com,https://www.dieselogasolina.com/Buscador/Ficha/4946,40.426472,-3.626083,ES,MADRID,MADRID,"AVDA. ARCENTALES, 7",N,L-D: 07:00-23:00,GALP,P,SP98,1.809,2023-11-21,2023-11-22
dieselogasolina.com,https://www.dieselogasolina.com/Buscador/Ficha/1574,39.625889,3.109028,ES,BALEARS (ILLES),PETRA,"CARRETERA PM-334 KM. 1,1",D,L-S: 06:30-21:00; D: 07:00-21:00,REPSOL,P,SP98,1.819,2023-11-20,2023-11-22
dieselogasolina.com,https://www.dieselogasolina.com/Buscador/Ficha/5275,36.517694,-4.830889,ES,MÁLAGA,MARBELLA,AUTOPISTA AP-7 KM. 187,D,L-D: 24H,REPSOL,P,SP98,1.819,2023-11-21,2023-11-22
dieselogasolina.com,https://www.dieselogasolina.com/Buscador/Ficha/733,38.139722,-0.774889,ES,ALICANTE,DOLORES,"CALLE MAESTRO SERRANO, 1",D,L-V: 07:00-21:00; S: 08:00-21:00; D: 08:00-20:00,REPSOL,P,SP95,1.659,2023-11-19,2023-11-22
dieselogasolina.com,https://www.dieselogasolina.com/Buscador/Ficha/7475,39.410389,-0.380917,ES,VALENCIA / VALÈNCIA,ALFAFAR,"CR N-332, 282",I,L-D: 06:00-22:00,REPSOL,P,SP95,1.679,2023-11-21,2023-11-22
dieselogasolina.com,https://www.dieselogasolina.com/Buscador/Ficha/18885,40.771972,-4.397611,ES,SEGOVIA,VILLACASTIN,AUTOPISTA AP-6 KM. 80,D,L-D: 24H,BP AP6 VILLACASTIN NORTE,P,SP98,1.751,2023-11-21,2023-11-22
dieselogasolina.com,https://www.dieselogasolina.com/Buscador/Ficha/18121,40.306333,-3.8105,ES,MADRID,LEGANES,CARRETERA M-407 KM. 1800,N,L-D: 24H,BP POLVORANCA,P,GA,1.639,2023-11-21,2023-11-22
dieselogasolina.com,https://www.dieselogasolina.com/Buscador/Ficha/19351,42.554389,-6.613417,ES,LEÓN,PONFERRADA,"CALLE BURDEOS  EN  PONFERRADA, 3",D,L-D: 24H,ZEPXA ECO,P,GA,1.455,2023-11-19,2023-11-22
dieselogasolina.com,https://www.dieselogasolina.com/Buscador/Ficha/6685,40.837444,-4.51725,ES,SEGOVIA,LABAJOS,"CARRETERA N-6 MADRID CORUÑA KM. 94,600",I,L-D: 06:00-22:00,CEPSA,P,GA,1.609,2023-11-21,2023-11-22
dieselogasolina.com,https://www.dieselogasolina.com/Buscador/Ficha/13227,36.707083,-6.125056,ES,CÁDIZ,JEREZ DE LA FRONTERA,"AVENIDA PRESIDENTE ADOLFO SUAREZ, 3",D,L-D: 06:00-22:00,REPSOL,P,GA+,1.679,2023-11-21,2023-11-22
dieselogasolina.com,https://www.dieselogasolina.com/Buscador/Ficha/19320,38.62325,-3.908611,ES,CIUDAD REAL,VILLANUEVA DE SAN CARLOS,"CR CR-504, 18,2",D,L: 07:00-20:00,E.S. VADILLO,P,GB,1.33,2023-11-19,2023-11-22
dieselogasolina.com,https://www.dieselogasolina.com/Buscador/Ficha/20133,42.800611,-1.611611,ES,NAVARRA,MUTILVA BAJA/MUTILOABEITI,"CARRETERA N-32 KM. 5,2",D,L-D: 24H,CEPSA,P,GA+,1.749,2023-11-19,2023-11-22
dieselogasolina.com,https://www.dieselogasolina.com/Buscador/Ficha/18493,43.436167,-8.065056,ES,CORUÑA (A),NEVES (AS),"CR L-141 CABAÑAS-AS PONTES, 11",I,L-S: 06:00-23:00; D: 07:00-23:00,REPSOL,P,GA,1.639,2023-11-21,2023-11-22
dieselogasolina.com,https://www.dieselogasolina.com/Buscador/Ficha/14099,39.588528,-0.542417,ES,VALENCIA / VALÈNCIA,POBLA DE VALLBONA (LA),"CALLE POETA LLORENTE, 202",D,L-D: 24H,RED OIL TEC,P,GA,1.479,2023-11-16,2023-11-22
dieselogasolina.com,https://www.dieselogasolina.com/Buscador/Ficha/13212,28.958278,-13.5925,ES,PALMAS (LAS),PLAYA HONDA,"AVENIDA MAMERTO CABRERA ESQUINA CALLE LA HOYA, SN",N,L-D: 24H,REPSOL,P,GA,1.399,2023-11-19,2023-11-22
dieselogasolina.com,https://www.dieselogasolina.com/Buscador/Ficha/8095,41.368139,-6.102306,ES,ZAMORA,BERMILLO DE SAYAGO,"AVENIDA DE LA GUARDIA CIVIL, 16",I,L: 07:00-23:00,REPSOL,P,SP95,1.589,2023-11-21,2023-11-22
dieselogasolina.com,https://www.dieselogasolina.com/Buscador/Ficha/18150,42.391861,-4.474139,ES,PALENCIA,VILLAHERREROS,AUTOVIA A-231.BURGOS-LEON KM. 99,D,L-D: 24H,BP VILLAHERREROS,P,SP98,1.741,2023-11-21,2023-11-22
dieselogasolina.com,https://www.dieselogasolina.com/Buscador/Ficha/14958,41.732306,2.600333,ES,GIRONA,SANT FELIU DE BUIXALLEU,"CARRETERA C-35 KM. 66,667",D,L-V: 06:00-22:00; S-D: 06:00-14:00,CEPSA,P,GA+,1.749,2023-11-21,2023-11-22
dieselogasolina.com,https://www.dieselogasolina.com/Buscador/Ficha/14825,37.337278,-5.972472,ES,SEVILLA,SEVILLA,"CARRETERA N-IV KM. 536,7",N,L-D: 06:00-23:00,BP OIL,P,GA+,1.799,2023-11-16,2023-11-22
dieselogasolina.com,https://www.dieselogasolina.com/Buscador/Ficha/13347,42.669417,-8.81125,ES,CORUÑA (A),TE,"POLIGONO EMPRESARIAL-PARCELA 3, 3",D,L-D: 07:00-23:00,BP,P,SP95,1.669,2023-11-20,2023-11-22
dieselogasolina.com,https://www.dieselogasolina.com/Buscador/Ficha/19063,43.38375,-5.771306,ES,ASTURIAS,GRANDA,"CALLE VALERIANO LEON, S/N",D,L-D: 24H,PETROPRIX,P,SP95,1.559,2023-11-20,2023-11-22
dieselogasolina.com,https://www.dieselogasolina.com/Buscador/Ficha/12435,40.50375,-3.514111,ES,MADRID,PARACUELLOS DE JARAMA,"CALLE PASEO DE LAS CAMELIAS, 2",I,L-D: 24H,BP,P,SP95,1.639,2023-11-20,2023-11-22
dieselogasolina.com,https://www.dieselogasolina.com/Buscador/Ficha/7096,40.878139,0.716278,ES,TARRAGONA,PERELLO (EL),"POLIGONO PLA DE SOLANS, S/N",N,L-D: 07:00-13:00 y 15:00-21:00,ALAS,P,GB,1.239,2023-11-16,2023-11-22
dieselogasolina.com,https://www.dieselogasolina.com/Buscador/Ficha/20070,38.029222,-4.166361,ES,JAÉN,MARMOLEJO,"AVENIDA DE ÁFRICA, 104",D,L: 24H,Q8,P,GA+,1.499,2023-11-20,2023-11-22
dieselogasolina.com,https://www.dieselogasolina.com/Buscador/Ficha/21386,28.097722,-15.479889,ES,PALMAS (LAS),TAMARACEITE,CARRETERA DE TEROR KM. 16,D,L-D: 24H,PLENOIL,P,GA,1.135,2023-11-16,2023-11-22
dieselogasolina.com,https://www.dieselogasolina.com/Buscador/Ficha/14472,41.353778,2.092889,ES,BARCELONA,CORNELLA DE LLOBREGAT,"AVENIDA FERROCARRILES CATALANES, 240",N,L-D: 24H,PETROPASS,P,SP98,1.885,2023-11-19,2023-11-22
dieselogasolina.com,https://www.dieselogasolina.com/Buscador/Ficha/3311,39.609056,-2.280778,ES,CUENCA,HONRUBIA,"CARRETERA N-III KM. 167,5",I,L-D: 07:00-23:00,CEPSA,P,SP95,1.629,2023-11-18,2023-11-22
dieselogasolina.com,https://www.dieselogasolina.com/Buscador/Ficha/6831,37.298667,-4.883389,ES,SEVILLA,ESTEPA,"CL AVDA. BADIA POLESINE , 49",I,L-D: 24H,REPSOL,P,GA,1.629,2023-11-19,2023-11-22
dieselogasolina.com,https://www.dieselogasolina.com/Buscador/Ficha/8198,41.117167,-1.406028,ES,ZARAGOZA,DAROCA,"CR N-234, 220,2",I,L-D: 07:00-23:00,REPSOL,P,GA+,1.639,2023-11-21,2023-11-22
dieselogasolina.com,https://www.dieselogasolina.com/Buscador/Ficha/15033,42.398417,-8.636361,ES,PONTEVEDRA,SALCEDO (SAN MARTIÑO),"CR N-550, 126,4",I,L-D: 07:00-23:00,REPSOL,P,SP98,1.719,2023-11-21,2023-11-22
dieselogasolina.com,https://www.dieselogasolina.com/Buscador/Ficha/2699,39.912361,-0.564389,ES,CASTELLÓN / CASTELLÓ,JERICA,CARRETERA NACIONAL 234 K.M. 42 KM. 42,D,L-D: 07:00-23:00,SHELL,P,GA,1.599,2023-11-20,2023-11-22
dieselogasolina.com,https://www.dieselogasolina.com/Buscador/Ficha/20709,41.973028,-4.470222,ES,PALENCIA,VILLAMURIEL DE CERRATO,"AUTOVIA A610 KM. 5,5",D,L-D: 07:00-23:00,CEPSA,P,GA,1.619,2023-11-21,2023-11-22
dieselogasolina.com,https://www.dieselogasolina.com/Buscador/Ficha/12970,38.994389,-0.524472,ES,VALENCIA / VALÈNCIA,XATIVA,"CAMINO CM DEL CEMENTERI, S/N",D,L-V: 07:00-21:00; S: 08:00-18:00,REPSOL,P,GA,1.649,2023-11-20,2023-11-22
dieselogasolina.com,https://www.dieselogasolina.com/Buscador/Ficha/994,37.307444,-1.770222,ES,ALMERÍA,LOBOS (LOS),"BARRIADA LOS LOBOS, 1",I,L-S: 07:00-22:00; D: 08:00-22:00,REPSOL,P,GA+,1.669,2023-11-19,2023-11-22
dieselogasolina.com,https://www.dieselogasolina.com/Buscador/Ficha/1968,41.560972,2.100972,ES,BARCELONA,SABADELL,"CALLE PRATS LLUSANES - ESQ. C. URGEL, S/N",D,L-D: 05:00-23:00,REPSOL,P,SP95,1.649,2023-11-21,2023-11-22
dieselogasolina.com,https://www.dieselogasolina.com/Buscador/Ficha/18861,41.149167,-3.671944,ES,SEGOVIA,PRADENA,"CTRA N-110 PK 144,600",D,L-D: 07:00-23:00,REPSOL,P,SP98,1.778,2023-11-19,2023-11-22
dieselogasolina.com,https://www.dieselogasolina.com/Buscador/Ficha/2641,40.435861,0.399111,ES,CASTELLÓN / CASTELLÓ,BENICARLO,POL. IND. EL COLLET. PARC 511,D,L-D: 07:00-22:00,EUROFUEL,P,GA+,1.699,2023-11-19,2023-11-22
dieselogasolina.com,https://www.dieselogasolina.com/Buscador/Ficha/10139,39.520639,-2.487694,ES,CUENCA,ALBERCA DE ZANCARA (LA),"CALLE SAN ISIDRO, 67",I,L-S: 08:00-14:00 y 15:00-20:00; D: 08:00-14:00,REPSOL,P,GA,1.629,2023-11-21,2023-11-22
dieselogasolina.com,https://www.dieselogasolina.com/Buscador/Ficha/9895,39.009611,-6.005778,ES,BADAJOZ,SANTA AMALIA,"CARRETERA VALDEHORNILLOS, S/N KM. S/N",D,L-D: 24H,AMALIA DE SAJONIA,P,SP95,1.509,2023-11-21,2023-11-22
dieselogasolina.com,https://www.dieselogasolina.com/Buscador/Ficha/15772,42.860306,-2.664278,ES,ARABA/ÁLAVA,VITORIA-GASTEIZ,"CALLE ZARAMAGA, 1",N,L-D: 24H,EROSKI,P,SP95,1.619,2023-11-21,2023-11-22
dieselogasolina.com,https://www.dieselogasolina.com/Buscador/Ficha/19387,38.079056,-3.845833,ES,JAÉN,GUARROMAN,AUTOVIA A-5 KM. 303,I,L-D: 06:00-22:00,ASC CARBURANTES,P,GA,1.479,2023-11-20,2023-11-22
dieselogasolina.com,https://www.dieselogasolina.com/Buscador/Ficha/2699,39.912361,-0.564389,ES,CASTELLÓN / CASTELLÓ,JERICA,CARRETERA NACIONAL 234 K.M. 42 KM. 42,D,L-D: 07:00-23:00,SHELL,P,SP95,1.609,2023-11-20,2023-11-22
dieselogasolina.com,https://www.dieselogasolina.com/Buscador/Ficha/21184,42.105444,-8.322472,ES,PONTEVEDRA,ARBO,CARRETERA PO-400 KM. 18,I,L: 07:00-23:00,REPSOL,P,SP95,1.596,2023-11-20,2023-11-22
dieselogasolina.com,https://www.dieselogasolina.com/Buscador/Ficha/18505,39.153778,-3.009389,ES,CIUDAD REAL,TOMELLOSO,"AVENIDA JUAN CARLOS I, 12",D,L-D: 24H,PLENOIL,P,SP95,1.459,2023-11-16,2023-11-22
dieselogasolina.com,https://www.dieselogasolina.com/Buscador/Ficha/5687,42.774333,-1.633278,ES,NAVARRA,ARANGUREN,"POLIGONO TALLUNTXE II, S/N",N,L-D: 24H,GALP,P,GA,1.379,2023-11-18,2023-11-22
dieselogasolina.com,https://www.dieselogasolina.com/Buscador/Ficha/1581,39.873722,3.016083,ES,BALEARS (ILLES),POLLENÇA,"CL CECILIO METELO-ESQ.PUIG MARI, S.",D,L-D: 06:00-22:00,REPSOL,P,SP95,1.649,2023-11-21,2023-11-22
dieselogasolina.com,https://www.dieselogasolina.com/Buscador/Ficha/17001,37.805333,-0.838333,ES,MURCIA,SAN JAVIER,"PLAZA CHICA, 3",I,L-D: 06:00-22:00,CEPSA,P,GA+,1.695,2023-11-21,2023-11-22
dieselogasolina.com,https://www.dieselogasolina.com/Buscador/Ficha/1291,38.640556,-6.487194,ES,BADAJOZ,ACEUCHAL,"C-423 KM 40,6",I,L-D: 06:00-22:00,CAMPSA,P,GA,1.599,2023-11-21,2023-11-22
dieselogasolina.com,https://www.dieselogasolina.com/Buscador/Ficha/243,43.273556,-2.274028,ES,GIPUZKOA,ARROA-BEKOA,"POLIGONO SANSINENEA ERREKA, 14",N,L-V: 08:30-20:00; S: 09:00-14:00,AVIA,P,SP95,1.599,2023-11-19,2023-11-22
dieselogasolina.com,https://www.dieselogasolina.com/Buscador/Ficha/20847,42.322806,-7.810528,ES,OURENSE,MEDORRA (A),"POLIGONO PARQUE EMPRESARIAL PARCELA, S/N",D,L-D: 24H,BALLENOIL,P,GA,1.408,2023-11-19,2023-11-22
dieselogasolina.com,https://www.dieselogasolina.com/Buscador/Ficha/10723,42.398583,-8.636444,ES,PONTEVEDRA,SALCEDO (SAN MARTIÑO),"CR N-550, 126,4",D,L-D: 07:00-23:00,REPSOL,P,GA+,1.719,2023-11-21,2023-11-22
dieselogasolina.com,https://www.dieselogasolina.com/Buscador/Ficha/8551,43.323611,-1.879944,ES,GIPUZKOA,LEZO,IPINTZA KALEA 47,D,L-D: 24H,MERKAOIL,P,GA,1.429,2023-11-20,2023-11-22
dieselogasolina.com,https://www.dieselogasolina.com/Buscador/Ficha/1986,41.426861,2.210139,ES,BARCELONA,SANT ADRIA DE BESOS,"CALLE GUIPUZCOA, S/N",N,L-D: 06:00-22:00,GALP,P,GA+,1.654,2023-11-21,2023-11-22
dieselogasolina.com,https://www.dieselogasolina.com/Buscador/Ficha/14483,42.173639,-2.885722,ES,RIOJA (LA),VINIEGRA DE ABAJO,"CR LR-113, 99,2 (LR-113 KM 24)",D,L-D: 08:00-20:00,REPSOL,P,GA,1.629,2023-11-20,2023-11-22
dieselogasolina.com,https://www.dieselogasolina.com/Buscador/Ficha/16475,43.112,-8.147583,ES,CORUÑA (A),SESMONDE,CARRETERA N-634 KM. 676,I,L-D: 24H,CAR OIL,P,GA,1.479,2023-11-19,2023-11-22
dieselogasolina.com,https://www.dieselogasolina.com/Buscador/Ficha/18972,40.368389,-3.644917,ES,MADRID,MADRID,"CALLE GUADALCANAL, 39",D,L-D: 24H,BP GUADALCANAL 365,P,SP98,1.719,2023-11-21,2023-11-22
dieselogasolina.com,https://www.dieselogasolina.com/Buscador/Ficha/18421,38.517306,-1.700417,ES,ALBACETE,HELLIN,"AVENIDA LIBERTAD, 111",D,L-D: 24H,PLENOIL,P,GA,1.499,2023-11-20,2023-11-22
dieselogasolina.com,https://www.dieselogasolina.com/Buscador/Ficha/16671,42.461611,-2.470417,ES,RIOJA (LA),LOGROÑO,"AVENIDA BURGOS, 49",D,L-D: 06:00-22:00,AVIA,P,GA,1.619,2023-11-20,2023-11-22
dieselogasolina.com,https://www.dieselogasolina.com/Buscador/Ficha/663,38.604722,-0.048611,ES,ALICANTE,ALTEA,"CALLE GARGANES, 42",D,L-D: 06:00-00:00,REPSOL,P,GA,1.609,2023-11-21,2023-11-22
dieselogasolina.com,https://www.dieselogasolina.com/Buscador/Ficha/11162,40.066083,-2.134361,ES,CUENCA,CUENCA,"CALLE HERMANOS BECERRIL, 2",D,L-V: 07:00-22:00; S: 08:00-22:00; D: 09:00-22:00,REPSOL,P,SP98,1.759,2023-11-21,2023-11-22
dieselogasolina.com,https://www.dieselogasolina.com/Buscador/Ficha/7660,39.561,-0.432361,ES,VALENCIA / VALÈNCIA,MASARROCHOS,"CARRETERA V-6044 KM. 6,3",I,L-V: 07:00-20:00,CEPSA,P,GA,1.669,2023-11-21,2023-11-22
dieselogasolina.com,https://www.dieselogasolina.com/Buscador/Ficha/5159,37.044917,-4.512111,ES,MÁLAGA,ANTEQUERA,CARRETERA N-331 KM. 124,D,L-D: 06:00-00:00,SHELL,P,GA+,1.729,2023-11-20,2023-11-22
dieselogasolina.com,https://www.dieselogasolina.com/Buscador/Ficha/3021,38.300639,-5.27525,ES,CÓRDOBA,PEÑARROYA-PUEBLONUEVO,"CARRETERA N-432 KM. 192,2",I,L-D: 06:00-00:00,REPSOL,P,GA+,1.659,2023-11-21,2023-11-22
dieselogasolina.com,https://www.dieselogasolina.com/Buscador/Ficha/12932,43.527167,-5.675944,ES,ASTURIAS,GIJON,"CALLE SEVERO OCHOA, 36",I,L-D: 06:00-22:00,CEPSA,P,SP95,1.659,2023-11-21,2023-11-22
dieselogasolina.com,https://www.dieselogasolina.com/Buscador/Ficha/19980,40.165722,-3.664944,ES,MADRID,VALDEMORO,"CALLE NARCISO MONTURIOL, 28",I,L-D: 24H,HAM,P,GNC,1.109,2023-11-19,2023-11-22
dieselogasolina.com,https://www.dieselogasolina.com/Buscador/Ficha/12001,41.984556,2.310056,ES,BARCELONA,VIC,"CTRA. DE RODA, 67",N,L-D: 07:00-23:00,FEIXAS AULET,P,GB,1.359,2023-11-19,2023-11-22
dieselogasolina.com,https://www.dieselogasolina.com/Buscador/Ficha/13991,38.794139,-4.856972,ES,CIUDAD REAL,CHILLON,CARRETERA ALMADEN-CHILLON KM.,I,L-V: 07:00-21:00; S-D: 08:00-14:30 y 15:30-21:00,HGOIL,P,GB,1.229,2023-11-20,2023-11-22
dieselogasolina.com,https://www.dieselogasolina.com/Buscador/Ficha/10219,36.715972,-4.304333,ES,MÁLAGA,RINCON DE LA VICTORIA,"AVENIDA MALAGA,",N,L-D: 24H,REPSOL,P,SP95,1.648,2023-11-20,2023-11-22
dieselogasolina.com,https://www.dieselogasolina.com/Buscador/Ficha/10007,39.562556,-4.96525,ES,TOLEDO,SEVILLEJA DE LA JARA,CRTA.N 502 PK 174,I,L-D: 07:00-21:00,AVIA,P,SP98,1.795,2023-11-19,2023-11-22
dieselogasolina.com,https://www.dieselogasolina.com/Buscador/Ficha/7715,39.531556,-0.472944,ES,VALENCIA / VALÈNCIA,PATERNA,"CR PATERNA-LIRIA KM 3,9",N,L-D: 24H,TRES CAMINOS SL-DIV.LA CAÑADA,P,SP98,1.831,2023-11-19,2023-11-22
dieselogasolina.com,https://www.dieselogasolina.com/Buscador/Ficha/2348,39.38325,-6.348778,ES,CÁCERES,VALDESALOR,AUTOVIA A-66 KM. 564,D,L: 06:30-22:30,REPSOL,P,GA+,1.699,2023-11-21,2023-11-22
dieselogasolina.com,https://www.dieselogasolina.com/Buscador/Ficha/19214,42.665972,-2.020806,ES,NAVARRA,ESTELLA O LIZARRA,"AVENIDA PAMPLONA, 33",D,L-D: 24H,AVIA,P,GA,1.51,2023-11-19,2023-11-22
dieselogasolina.com,https://www.dieselogasolina.com/Buscador/Ficha/10618,38.285333,-6.91225,ES,BADAJOZ,OLIVA FRONTERA,CARRETERA JEREZ KM. S/N,D,L-D: 07:00-22:00,IBERDOEX,P,GA+,1.619,2023-11-20,2023-11-22
dieselogasolina.com,https://www.dieselogasolina.com/Buscador/Ficha/18313,42.358694,-3.695111,ES,BURGOS,BURGOS,CARRETERA CARRETERA DE SANTANDER KM. 2,N,L-D: 07:00-00:00,E.S.  VISTA ALEGRE,P,GA,1.607,2023-11-19,2023-11-22
dieselogasolina.com,https://www.dieselogasolina.com/Buscador/Ficha/20076,36.771278,-2.826111,ES,ALMERÍA,EJIDO (EL),"CALLE BULEVAR, 74",D,L-D: 06:00-22:00,REPSOL LA COSTA,P,GA+,1.729,2023-11-20,2023-11-22
dieselogasolina.com,https://www.dieselogasolina.com/Buscador/Ficha/12974,38.362333,-3.064778,ES,JAÉN,VENTA DE LOS SANTOS,"CARRETERA A 6203 KM. 39,200",D,L-S: 07:00-22:00,STMO CRISTO DE LA EXPIRACION,A,GA+,1.619,2023-11-05,2023-11-22
dieselogasolina.com,https://www.dieselogasolina.com/Buscador/Ficha/5673,37.616944,-1.752222,ES,MURCIA,ZARCILLA DE RAMOS,"CARRETERA N-340 KM. 585,2",I,L-D: 06:00-22:00,REPSOL,P,SP98,1.739,2023-11-21,2023-11-22
dieselogasolina.com,https://www.dieselogasolina.com/Buscador/Ficha/14166,41.628333,0.908972,ES,LLEIDA,GOLMES,"CRTA.N II, KM 486 POL.IND.GOLDPARK",N,L-S: 08:00-21:00; D: 09:00-14:00,PETROLIS INDEPENDENTS - PETRO7,P,GA+,1.468,2023-11-19,2023-11-22
dieselogasolina.com,https://www.dieselogasolina.com/Buscador/Ficha/19852,36.732139,-4.484333,ES,MÁLAGA,MALAGA,"CALLE JORGE E. LORING OYARZABAL, 4",D,L-D: 24H,VLADOIL MÁLAGA,P,GA,1.585,2023-11-19,2023-11-22
dieselogasolina.com,https://www.dieselogasolina.com/Buscador/Ficha/1120,43.529889,-5.7075,ES,ASTURIAS,GIJON,"POLIGONO LOS CAMPONES INTERS. AS-19 (PARC.1 Y 4) (TREMAÑES-CARRETERA), S/N",D,L-D: 06:00-00:00,REPSOL,P,GA+,1.759,2023-11-21,2023-11-22
dieselogasolina.com,https://www.dieselogasolina.com/Buscador/Ficha/14662,41.614,2.144639,ES,BARCELONA,SENTMENAT,"CALLE TORRENT D'EN BAIELL, 10",N,L-D: 24H,GASUIR,P,GA,1.499,2023-11-19,2023-11-22
dieselogasolina.com,https://www.dieselogasolina.com/Buscador/Ficha/3448,42.398417,2.882667,ES,GIRONA,LA JONQUERA,"CARRETERA N-2 KM. 772,5",D,L-D: 24H,REPSOL,P,SP98,1.659,2023-11-21,2023-11-22
dieselogasolina.com,https://www.dieselogasolina.com/Buscador/Ficha/8399,41.496889,2.159278,ES,BARCELONA,RIPOLLET,"CALLE CERANOVA, 13",N,L-V: 08:00-13:00 y 16:00-20:00; S: 09:00-13:00,CASAMITJANA NONELL,P,GA,1.46,2023-11-19,2023-11-22
dieselogasolina.com,https://www.dieselogasolina.com/Buscador/Ficha/4817,40.457306,-3.658278,ES,MADRID,MADRID,"CL ARTURO SORIA, 175",D,L-D: 24H,REPSOL,P,SP98,1.839,2023-11-21,2023-11-22
dieselogasolina.com,https://www.dieselogasolina.com/Buscador/Ficha/19032,40.942056,-5.6805,ES,SALAMANCA,ALDEATEJADA,"CALLE ANTONIO GAUDI, 1",D,L-D: 24H,BP SALAMANCA,P,GA,1.669,2023-11-21,2023-11-22
dieselogasolina.com,https://www.dieselogasolina.com/Buscador/Ficha/3610,37.752694,-2.551389,ES,GRANADA,GALERA,CARRETERA HUESCAR A-330 KM. 21,D,L-D: 07:00-11:00,E. S. SAN JOSÉ,P,GB,1.329,2023-11-19,2023-11-22
dieselogasolina.com,https://www.dieselogasolina.com/Buscador/Ficha/8027,43.37725,-2.864861,ES,BIZKAIA,BILLELA,CARRETERA MUNGIA-PLENTZIA KM. 18,D,L-V: 06:00-22:00; S-D: 07:00-22:00,PETRONOR,P,GA+,1.709,2023-11-21,2023-11-22
dieselogasolina.com,https://www.dieselogasolina.com/Buscador/Ficha/11448,41.576,1.61375,ES,BARCELONA,IGUALADA,"CALLE EL REC CANTONADA JOAN MERCADER, S/N",N,L-D: 24H,PETROMIRALLES,P,GA+,1.489,2023-11-19,2023-11-22
dieselogasolina.com,https://www.dieselogasolina.com/Buscador/Ficha/1889,41.397278,2.032917,ES,BARCELONA,MOLINS DE REI,CARRETERA N-340 KM. 1246,N,L-D: 05:00-23:00,SHELL,P,GA,1.619,2023-11-20,2023-11-22
dieselogasolina.com,https://www.dieselogasolina.com/Buscador/Ficha/18179,37.39575,-5.938722,ES,SEVILLA,SEVILLA,"CALLE COJINETE, SN",N,L-V: 07:00-21:00; S: 08:00-20:00,APJ,P,GA+,1.479,2023-11-16,2023-11-22
dieselogasolina.com,https://www.dieselogasolina.com/Buscador/Ficha/18634,27.767306,-15.677861,ES,PALMAS (LAS),ARGUINEGUIN,"CALLE DELIOMA, 1",D,L-D: 24H,PCAN,P,SP95,1.295,2023-11-19,2023-11-22
dieselogasolina.com,https://www.dieselogasolina.com/Buscador/Ficha/9242,43.297944,-4.795833,ES,ASTURIAS,ARENAS (LAS),"CARRETERA AS-114 KM. 32,80",D,L-D: 08:00-22:00,ESC-PETROLEOS,P,GB,1.265,2023-11-20,2023-11-22
dieselogasolina.com,https://www.dieselogasolina.com/Buscador/Ficha/21616,40.481667,0.473333,ES,CASTELLÓN / CASTELLÓ,VINAROS,CARRETERA VALENCIA - BARCELONA KM. 37,D,L-D: 24H,PLENOIL,P,SP95,1.457,2023-11-16,2023-11-22
dieselogasolina.com,https://www.dieselogasolina.com/Buscador/Ficha/5202,36.473333,-5.010972,ES,MÁLAGA,ESTEPONA,"CR N-340, 169,1",I,L-D: 24H,REPSOL,P,SP95,1.689,2023-11-21,2023-11-22
dieselogasolina.com,https://www.dieselogasolina.com/Buscador/Ficha/19678,40.080528,-5.534944,ES,CÁCERES,LOSAR DE LA VERA,"DISEMINADO EL ROBLEDO, S/N",D,L-D: 24H,CARBURANTES COOLOSAR,P,GB,1.229,2023-11-13,2023-11-22
dieselogasolina.com,https://www.dieselogasolina.com/Buscador/Ficha/18968,39.388139,-3.220639,ES,CIUDAD REAL,ALCAZAR DE SAN JUAN,CL AVENIDA DE HERENCIA S.N.,D,L-V: 08:00-14:15 y 17:00-21:00; S: 09:00-14:00,REPSOL,P,GA,1.639,2023-11-21,2023-11-22
dieselogasolina.com,https://www.dieselogasolina.com/Buscador/Ficha/16262,40.919972,-5.507583,ES,SALAMANCA,FRANCOS VIEJO,"AUTOVIA A50 KM. 86,700",D,L: 07:00-23:00,CEPSA,P,GA,1.659,2023-11-17,2023-11-22
dieselogasolina.com,https://www.dieselogasolina.com/Buscador/Ficha/9220,40.424806,-3.611222,ES,MADRID,MADRID,"AVENIDA CANILLEJAS A VICALVARO, 147",I,L-D: 24H,CEPSA,P,GA+,1.719,2023-11-21,2023-11-22
dieselogasolina.com,https://www.dieselogasolina.com/Buscador/Ficha/6420,40.830472,-5.279389,ES,SALAMANCA,MACOTERA,"CALLE SAN GREGORIO, 21",D,L-V: 08:30-20:30; S-D: 09:00-15:00,PETRONOR,P,GA+,1.689,2023-11-21,2023-11-22
dieselogasolina.com,https://www.dieselogasolina.com/Buscador/Ficha/11910,42.393306,-8.693944,ES,PONTEVEDRA,MARIN,"CALLE O FORTE, 27",D,L-S: 07:15-22:15; D: 08:30-14:30,REPSOL,P,GA+,1.729,2023-11-21,2023-11-22
dieselogasolina.com,https://www.dieselogasolina.com/Buscador/Ficha/7437,40.048361,-3.913361,ES,TOLEDO,YUNCLER,"CR A-42, 47,3",D,L-D: 06:00-22:00,REPSOL,P,SP98,1.799,2023-11-21,2023-11-22
dieselogasolina.com,https://www.dieselogasolina.com/Buscador/Ficha/20969,41.741694,-6.486417,ES,ZAMORA,TRABAZOS,"POLIGONO POLIGONO 506, PARCELA 1608-B, 1608",N,L-D: 06:00-23:59,CEPSA,P,SP95,1.619,2023-11-21,2023-11-22
dieselogasolina.com,https://www.dieselogasolina.com/Buscador/Ficha/17672,41.892056,2.731972,ES,GIRONA,VILOBI D'ONYAR,CARRETERA GIRONA SANTA COLOAM FARNERS KM. 13,I,L-S: 06:00-22:00; D: 07:00-22:00,BP,P,GA+,1.699,2023-11-19,2023-11-22
dieselogasolina.com,https://www.dieselogasolina.com/Buscador/Ficha/19879,42.811139,-8.545361,ES,CORUÑA (A),TEO,CARRETERA C-541 KM. 6,I,L-V: 07:30-22:00; S-D: 08:00-22:00,GV OIL,P,GA+,1.519,2023-11-21,2023-11-22
dieselogasolina.com,https://www.dieselogasolina.com/Buscador/Ficha/20036,42.326361,-7.877944,ES,OURENSE,OURENSE,"RUA MARCELO MACIAS, 142",D,L-D: 24H,PLENOIL,P,GA,1.469,2023-11-21,2023-11-22
dieselogasolina.com,https://www.dieselogasolina.com/Buscador/Ficha/6576,28.651028,-17.867278,ES,SANTA CRUZ DE TENERIFE,PASO (EL),"CARRETERA PADRON KM. 24,300",N,L-D: 24H,SHELL,P,GA+,1.525,2023-11-19,2023-11-22
dieselogasolina.com,https://www.dieselogasolina.com/Buscador/Ficha/12475,27.753306,-15.601944,ES,PALMAS (LAS),MASPALOMAS,"CARRETERA C-812 KM. 56,8",D,L-D: 24H,CEPSA MASPALOMAS,P,SP95,1.329,2023-11-20,2023-11-22
dieselogasolina.com,https://www.dieselogasolina.com/Buscador/Ficha/20741,42.193444,-8.651722,ES,PONTEVEDRA,TAMEIGA (SAN MARTIÑO),AUTOVIA A-55 KM. 10,D,L-D: 24H,CEPSA,P,GA+,1.744,2023-11-19,2023-11-22
dieselogasolina.com,https://www.dieselogasolina.com/Buscador/Ficha/1970,41.532611,2.105417,ES,BARCELONA,SABADELL,"CL JOAQUIN BLUME, 1",D,L-D: 24H,REPSOL,P,GLP,0.969,2023-11-21,2023-11-22
dieselogasolina.com,https://www.dieselogasolina.com/Buscador/Ficha/8378,40.268028,-4.981472,ES,ÁVILA,SAN ESTEBAN DEL VALLE,CARRETERA SANTA CRUZ DEL VALLE KM. S/N,N,L-D: 24H,"SAN PEDRO BAUTISTA VILLACASTIN, S.COOP",R,GA,1.55,2023-11-19,2023-11-22
dieselogasolina.com,https://www.dieselogasolina.com/Buscador/Ficha/19686,39.884917,4.246694,ES,BALEARS (ILLES),MAO,"CARRER ARTRUXT, 7",D,L-D: 24H,AUTONETOIL,P,GA,1.639,2023-11-19,2023-11-22
dieselogasolina.com,https://www.dieselogasolina.com/Buscador/Ficha/18468,41.551722,2.025361,ES,BARCELONA,TERRASSA,"AVENIDA SANTA EULALIA, DE, 240",D,L-D: 24H,BENZOIL,P,SP95,1.494,2023-11-12,2023-11-22
dieselogasolina.com,https://www.dieselogasolina.com/Buscador/Ficha/15957,39.931306,-0.196389,ES,CASTELLÓN / CASTELLÓ,BETXI,"CR CS-233, 2,8",I,L-V: 07:00-20:45; S: 07:00-13:45,PETRONOR,P,SP98,1.749,2023-11-21,2023-11-22
dieselogasolina.com,https://www.dieselogasolina.com/Buscador/Ficha/5552,38.038472,-1.501,ES,MURCIA,MULA,"CTRA.CARAVACA, S/N",D,L-D: 24H,FRUCIMU,P,GA,1.42,2023-11-10,2023-11-22
dieselogasolina.com,https://www.dieselogasolina.com/Buscador/Ficha/14321,37.189139,-5.765528,ES,SEVILLA,UTRERA,CARRETERA A-394 KM. 18,D,L-D: 06:00-22:00,PETRONOR,P,GA+,1.709,2023-11-21,2023-11-22
dieselogasolina.com,https://www.dieselogasolina.com/Buscador/Ficha/5417,38.020417,-1.160694,ES,MURCIA,CABEZO CORTADO,CARRETERA N-301 KM. 388,I,L-D: 24H,REPSOL,P,SP98,1.719,2023-11-21,2023-11-22
dieselogasolina.com,https://www.dieselogasolina.com/Buscador/Ficha/7667,39.468611,-0.433111,ES,VALENCIA / VALÈNCIA,MISLATA,"ACCESO PLAN PARCIAL LES VIÑES CV 403 NUEVO ACCESO A XIRIVELLA C-3215, SN",N,L-D: 06:00-22:00,GALP,P,SP95,1.619,2023-11-21,2023-11-22
dieselogasolina.com,https://www.dieselogasolina.com/Buscador/Ficha/13258,42.939611,-6.313667,ES,LEÓN,VILLABLINO,"CALLE SIERRA PAMBLEY, 29",D,L-D: 06:00-22:00,AVIA,P,SP98,1.859,2023-11-19,2023-11-22
dieselogasolina.com,https://www.dieselogasolina.com/Buscador/Ficha/15899,28.38975,-16.665028,ES,SANTA CRUZ DE TENERIFE,GUANCHA (LA),CARRETERA TF-5 SANTA CRUZ - ICOD KM. 49,D,L-D: 24H,TGAS SANTA CATALINA,P,GA+,1.327,2023-11-19,2023-11-22
dieselogasolina.com,https://www.dieselogasolina.com/Buscador/Ficha/4264,42.594222,-5.570389,ES,LEÓN,LEON,"PLAZA SAN FRANCISCO, S/N",D,L-V: 08:00-22:00; S-D: 09:00-15:00,CEPSA,P,SP95,1.575,2023-11-20,2023-11-22
dieselogasolina.com,https://www.dieselogasolina.com/Buscador/Ficha/21419,42.202278,-8.754778,ES,PONTEVEDRA,VIGO,"CARRETERA CAMPOSANCOS KM. 0,47",D,L-D: 24H,BALLENOIL,P,SP95,1.487,2023-11-20,2023-11-22
dieselogasolina.com,https://www.dieselogasolina.com/Buscador/Ficha/5747,42.024778,-1.580333,ES,NAVARRA,FONTELLAS,"CARRETERA A-68 KM. 99,82",I,L-V: 06:00-22:00,GALP,P,GA+,1.534,2023-11-19,2023-11-22
dieselogasolina.com,https://www.dieselogasolina.com/Buscador/Ficha/10805,28.231306,-14.103778,ES,PALMAS (LAS),TARAJALEJO,CARRETERA CARRETERA GENERAL DE TARAJALEJO KM. 16,N,L-D: 24H,DISA EL CARACOL,P,SP98,1.514,2023-11-20,2023-11-22
dieselogasolina.com,https://www.dieselogasolina.com/Buscador/Ficha/14087,37.361028,-5.989861,ES,SEVILLA,SEVILLA,"AVENIDA RAZA (LA), 66",I,L-D: 24H,REPSOL,P,SP98,1.819,2023-11-21,2023-11-22
dieselogasolina.com,https://www.dieselogasolina.com/Buscador/Ficha/8925,41.021389,-4.769778,ES,ÁVILA,NAVA DE AREVALO,"CALLE LARGA, 22",N,L-D: 24H,******,R,GB,1.23,2023-11-12,2023-11-22
dieselogasolina.com,https://www.dieselogasolina.com/Buscador/Ficha/14909,36.791667,-2.706861,ES,ALMERÍA,MOJONERA (LA),CARRETERA N-340 KM. 418,D,L-D: 05:30-23:30,SHELL,P,SP98,1.769,2023-11-20,2023-11-22
dieselogasolina.com,https://www.dieselogasolina.com/Buscador/Ficha/3679,36.743556,-3.513833,ES,GRANADA,MOTRIL,"CALLE PUENTE TOLEDANO, S/N",I,L-D: 06:00-22:00,CEPSA,P,GA,1.589,2023-11-20,2023-11-22
dieselogasolina.com,https://www.dieselogasolina.com/Buscador/Ficha/16926,41.5675,2.176167,ES,BARCELONA,POLIGON INDUSTRIAL RIERA DE CALDES,"CAMI AVINGUDA CAMI REIAL, 32",D,L-D: 24H,BENZOIL,P,SP95,1.499,2023-11-21,2023-11-22
dieselogasolina.com,https://www.dieselogasolina.com/Buscador/Ficha/8628,36.755778,-5.154028,ES,MÁLAGA,RONDA,CARRETERA A-374 (ALGODONALES - RONDA) KM. 33,I,L-V: 09:00-14:00 y 16:00-19:00; S: 09:00-14:00,ALMAZARA DE RONDA,R,GB,1.14,2023-11-19,2023-11-22
dieselogasolina.com,https://www.dieselogasolina.com/Buscador/Ficha/16269,41.797222,2.229722,ES,BARCELONA,CENTELLES,"AVENIDA ILDEFONS CERDA, 121",N,L-D: 24H,PETROLIS INDEPENDENTS,P,GA,1.398,2023-11-19,2023-11-22
dieselogasolina.com,https://www.dieselogasolina.com/Buscador/Ficha/19466,43.381861,-4.565167,ES,ASTURIAS,ANDINAS,CARRETERA A-8 KM. 277,D,L-D: 06:00-23:59,CEPSA,P,GLP,0.989,2023-11-20,2023-11-22
dieselogasolina.com,https://www.dieselogasolina.com/Buscador/Ficha/11121,39.672611,-0.249056,ES,VALENCIA / VALÈNCIA,SAGUNTO,CARRETERA SAGUNTO-PUERTO SAGUNTO KM. 2,N,L-D: 24H,CARREFOUR,P,SP98,1.779,2023-11-20,2023-11-22
dieselogasolina.com,https://www.dieselogasolina.com/Buscador/Ficha/12574,39.016361,-1.893944,ES,ALBACETE,ALBACETE,"AVENIDA PRIMERA, 94",N,L-V: 06:00-22:00; S: 06:00-14:00,INPEALSA,P,SP95,1.569,2023-11-20,2023-11-22
dieselogasolina.com,https://www.dieselogasolina.com/Buscador/Ficha/17588,36.709722,-4.471833,ES,MÁLAGA,MALAGA,"CALLE ROSAMUNDA, S/N",N,L-D: 06:00-22:00,BP POLIGONO ALAMEDA,P,GA,1.659,2023-11-17,2023-11-22
dieselogasolina.com,https://www.dieselogasolina.com/Buscador/Ficha/6124,27.838417,-15.456972,ES,PALMAS (LAS),SANTA LUCIA,CL FRANCHY Y ROCA (EL DOCTORAL) S/N,N,L-D: 24H,BP EL TARO,P,SP98,1.426,2023-11-20,2023-11-22
dieselogasolina.com,https://www.dieselogasolina.com/Buscador/Ficha/899,37.996028,-0.655833,ES,ALICANTE,TORREVIEJA,"CL AVDA. ALFREDO NOBEL, 195",I,L-V: 07:00-21:00; S-D: 09:00-21:00,REPSOL,P,GA+,1.679,2023-11-21,2023-11-22
dieselogasolina.com,https://www.dieselogasolina.com/Buscador/Ficha/14228,27.899167,-15.404722,ES,PALMAS (LAS),AGUIMES,AUTOPISTA GC-1 KM. 21,D,L-D: 24H,DISA AUTOPISTA KM 21,P,SP98,1.459,2023-11-20,2023-11-22
dieselogasolina.com,https://www.dieselogasolina.com/Buscador/Ficha/9612,38.317167,-2.665306,ES,JAÉN,ORCERA,"CALLE JOAQUIN PAYA, 13",I,L-D: 07:00-21:00,CEPSA,P,SP95,1.629,2023-11-20,2023-11-22
dieselogasolina.com,https://www.dieselogasolina.com/Buscador/Ficha/14285,41.750806,-0.801806,ES,ZARAGOZA,PEÑAFLOR,"CARRETERA A123 KM. 10,4",I,L-V: 07:00-21:00; S-D: 08:00-14:00,CEPSA,P,GA+,1.658,2023-11-19,2023-11-22
dieselogasolina.com,https://www.dieselogasolina.com/Buscador/Ficha/5355,35.290472,-2.946306,ES,MELILLA,MELILLA,ALFEREZ PROVISIONALES S/N,D,L-S: 07:00-23:00,SHELL,P,SP95,1.213,2023-11-20,2023-11-22
dieselogasolina.com,https://www.dieselogasolina.com/Buscador/Ficha/2978,37.882944,-4.805472,ES,CÓRDOBA,CORDOBA,CARRETERA A PALMA DEL RIO KM. 2,D,L-D: 06:00-23:00,REPSOL,P,SP95,1.599,2023-11-21,2023-11-22
dieselogasolina.com,https://www.dieselogasolina.com/Buscador/Ficha/18947,39.266417,-2.596944,ES,ALBACETE,VILLARROBLEDO,"CALLE GENERAL MARTI, 2",D,L-D: 24H,PLENOIL,P,SP95,1.469,2023-11-17,2023-11-22
dieselogasolina.com,https://www.dieselogasolina.com/Buscador/Ficha/17897,36.606694,-4.510417,ES,MÁLAGA,TORREMOLINOS,"AVENIDA CARLOTA ALESSANDRI, 210",N,L-D: 24H,BP CERRO LARGO,P,SP95,1.649,2023-11-21,2023-11-22
dieselogasolina.com,https://www.dieselogasolina.com/Buscador/Ficha/16741,40.247083,-3.765111,ES,MADRID,PARLA,"CR PARLA-PINTO, KM.  0.15",D,L-D: 06:00-22:00,REPSOL,P,SP95,1.649,2023-11-21,2023-11-22
dieselogasolina.com,https://www.dieselogasolina.com/Buscador/Ficha/14949,43.240556,-8.135,ES,CORUÑA (A),COIROS DE ARRIBA,AUTOVIA E-70/A-6 KM. 558,D,L-D: 24H,REPSOL,P,GA+,1.669,2023-11-21,2023-11-22
dieselogasolina.com,https://www.dieselogasolina.com/Buscador/Ficha/5478,37.74675,-1.123556,ES,MURCIA,FUENTE ALAMO,"E-12 KM 5,7",I,L: 06:00-22:00,EL MARINO,P,GLP,0.96,2023-11-19,2023-11-22
dieselogasolina.com,https://www.dieselogasolina.com/Buscador/Ficha/7258,39.895111,-5.303639,ES,TOLEDO,CALZADA DE OROPESA (LA),"CR A-5, 159",I,L: 06:00-22:00,REPSOL,P,GA+,1.709,2023-11-21,2023-11-22
dieselogasolina.com,https://www.dieselogasolina.com/Buscador/Ficha/17012,41.192972,1.20175,ES,TARRAGONA,MORELL (EL),"AVENIDA DE LA PAU,",I,L-D: 05:00-23:00,PETRONOR,P,GA+,1.649,2023-11-21,2023-11-22
dieselogasolina.com,https://www.dieselogasolina.com/Buscador/Ficha/21256,43.246889,-8.577333,ES,CORUÑA (A),TORAS,"AVENIDA FINISTERRE, 4",D,L-V: 06:30-22:30; S: 08:00-23:00; D: 08:00-22:30,VALCARCE,P,SP98,1.689,2023-11-19,2023-11-22
dieselogasolina.com,https://www.dieselogasolina.com/Buscador/Ficha/6184,42.582472,-8.697111,ES,PONTEVEDRA,CALCOTE,"LUGAR CALCOTE-GODOS, S/N",I,L-D: 06:00-00:00,CKM,P,SP95,1.569,2023-11-19,2023-11-22
dieselogasolina.com,https://www.dieselogasolina.com/Buscador/Ficha/18417,38.665889,0.084944,ES,ALICANTE,BENISSA,"AVENIDA LAS MARINAS, 290",D,L-D: 07:00-22:00,BP CALA FUSTERA,R,SP98,1.871,2023-11-20,2023-11-22
dieselogasolina.com,https://www.dieselogasolina.com/Buscador/Ficha/6371,42.325472,-2.050417,ES,RIOJA (LA),PRADEJON,"CARRETERA COMARCAL LO 640 KM. 0,8",D,L-V: 07:00-21:00; S: 07:00-14:00,REPSOL,P,GA,1.639,2023-11-21,2023-11-22
dieselogasolina.com,https://www.dieselogasolina.com/Buscador/Ficha/10361,41.678917,-0.889917,ES,ZARAGOZA,ZARAGOZA,"CALLE POETA MARIA ZAMBRANO, 2",D,L-S: 07:00-22:00; D: 08:00-22:00,CEPSA,P,SP95,1.629,2023-11-20,2023-11-22
dieselogasolina.com,https://www.dieselogasolina.com/Buscador/Ficha/13899,41.237556,1.75525,ES,BARCELONA,SANT PERE DE RIBES,"RAMBLA DEL GARRAF, 68",D,L-D: 24H,LOWCOSTFUEL,P,SP95,1.499,2023-11-20,2023-11-22
dieselogasolina.com,https://www.dieselogasolina.com/Buscador/Ficha/11557,39.280861,-0.383417,ES,VALENCIA / VALÈNCIA,SOLLANA,"PLAZA CALVARIO, 13",D,L-V: 07:00-21:00; S: 07:00-15:00; D: 08:00-13:30,E.S.VISA,P,SP95,1.599,2023-11-19,2023-11-22
dieselogasolina.com,https://www.dieselogasolina.com/Buscador/Ficha/899,37.996028,-0.655833,ES,ALICANTE,TORREVIEJA,"CL AVDA. ALFREDO NOBEL, 195",I,L-V: 07:00-21:00; S-D: 09:00-21:00,REPSOL,P,GA,1.589,2023-11-21,2023-11-22
dieselogasolina.com,https://www.dieselogasolina.com/Buscador/Ficha/9904,43.130444,-1.630722,ES,NAVARRA,LEGASA,"CARRETERA N-121A KM. 44,5",D,L-D: 06:00-22:00,REPSOL,P,GB,1.239,2023-11-21,2023-11-22
dieselogasolina.com,https://www.dieselogasolina.com/Buscador/Ficha/4029,42.740833,-0.748278,ES,HUESCA,HECHO,"CALLE CARRETERA DE OZA, S/N",I,L-D: 09:00-13:30 y 16:30-20:00,CEPSA,P,GB,1.416,2023-11-21,2023-11-22
dieselogasolina.com,https://www.dieselogasolina.com/Buscador/Ficha/21063,40.308361,-3.475528,ES,MADRID,ARGANDA,"TRAVESÍA SIERRA DE GATA, 17",D,L-D: 24H,BALLENOIL,P,GA,1.489,2023-11-20,2023-11-22
dieselogasolina.com,https://www.dieselogasolina.com/Buscador/Ficha/11077,38.026167,-3.369528,ES,JAÉN,UBEDA,"CALLE CARRETERA DE VILCHES, S/N",D,L-D: 06:00-22:00,REPSOL,P,SP95,1.598,2023-11-19,2023-11-22
dieselogasolina.com,https://www.dieselogasolina.com/Buscador/Ficha/14905,38.086917,-0.936139,ES,ALICANTE,ORIHUELA,"CARRETERA ALMORADI KM. 0,2",D,L-D: 06:30-21:30,CEPSA,P,GA,1.619,2023-11-20,2023-11-22
dieselogasolina.com,https://www.dieselogasolina.com/Buscador/Ficha/18999,42.604167,-7.770333,ES,LUGO,CHANTADA,"CARRETERA CTRA. DE OURENSE, S/N KM. 57,4",I,L-D: 07:00-23:00,"AMMNSA, S.L.",P,GA,1.629,2023-11-21,2023-11-22
dieselogasolina.com,https://www.dieselogasolina.com/Buscador/Ficha/1320,38.906278,-6.964972,ES,BADAJOZ,BADAJOZ,"CTRA. EX-100 KM 85,6",D,L-D: 06:30-22:30,REPSOL,P,GA+,1.809,2023-11-19,2023-11-22
dieselogasolina.com,https://www.dieselogasolina.com/Buscador/Ficha/13064,39.1445,-0.427889,ES,VALENCIA / VALÈNCIA,ALZIRA,"CALLE GANDIA, 24",N,L-D: 24H,MASOIL,P,SP95,1.579,2023-11-19,2023-11-22
dieselogasolina.com,https://www.dieselogasolina.com/Buscador/Ficha/16243,37.824889,-0.813917,ES,MURCIA,SAN JAVIER,CARRETERA CTRA.N-332 KM. 34,N,L-S: 08:00-22:00; D: 09:00-22:00,CARREFOUR,P,GA,1.549,2023-11-20,2023-11-22
dieselogasolina.com,https://www.dieselogasolina.com/Buscador/Ficha/2065,41.535556,2.192833,ES,BARCELONA,SANTA PERPETUA DE MOGODA,"CARRETERA C-59 KM. 1,5",I,L-D: 06:00-22:00,CEPSA,P,GA+,1.739,2023-11-21,2023-11-22
dieselogasolina.com,https://www.dieselogasolina.com/Buscador/Ficha/13151,37.5445,-1.456361,ES,MURCIA,ERMITA DEL RAMONETE,"CARRETERA RM-332 KM. 50,294",I,L: 07:00-21:00,REPSOL,P,SP95,1.619,2023-11-16,2023-11-22
dieselogasolina.com,https://www.dieselogasolina.com/Buscador/Ficha/6880,37.930778,-5.468083,ES,SEVILLA,NAVAS DE LA CONCEPCION,CTRA. SE-150 KM 21.2,I,L-S: 07:00-14:30 y 16:00-21:00; D: 09:00-14:00,REPSOL,P,GA,1.659,2023-11-20,2023-11-22
dieselogasolina.com,https://www.dieselogasolina.com/Buscador/Ficha/1909,41.903861,1.878111,ES,BARCELONA,NAVAS,"CARRETERA C-16 KM. 73,47",I,L-D: 06:00-22:00,PETROCAT,P,GB,1.229,2023-11-21,2023-11-22
dieselogasolina.com,https://www.dieselogasolina.com/Buscador/Ficha/16900,38.24,-3.050972,ES,JAÉN,SORIHUELA DEL GUADALIMAR,"AVENIDA ANDALUCIA, 0",D,L-D: 24H,JAENCOOP ENERGY,P,GA,1.599,2023-11-19,2023-11-22
dieselogasolina.com,https://www.dieselogasolina.com/Buscador/Ficha/6250,42.436444,-8.643972,ES,PONTEVEDRA,PONTEVEDRA,"AVENIDA DOMINGO FONTAN, S/N",D,L-D: 07:00-23:00,REPSOL,P,GA,1.639,2023-11-21,2023-11-22
dieselogasolina.com,https://www.dieselogasolina.com/Buscador/Ficha/10850,41.435833,2.201472,ES,BARCELONA,BARCELONA,"CALLE SANT ADRIA, 81",D,L-S: 06:00-22:00; D: 07:00-15:00,REPSOL,P,GA+,1.679,2023-11-20,2023-11-22
dieselogasolina.com,https://www.dieselogasolina.com/Buscador/Ficha/8280,41.350472,-1.038972,ES,ZARAGOZA,VILLANUEVA DE HUERVA,"CARRETERA A1101 KM. 16,5",I,L-V: 08:00-13:30 y 15:30-20:00; S: 08:00-13:30,CEPSA,P,GB,1.259,2023-11-19,2023-11-22
dieselogasolina.com,https://www.dieselogasolina.com/Buscador/Ficha/8723,37.600861,-5.214806,ES,SEVILLA,CAÑADA ROSAL,"PROLONGACIO/PROLONGACIÓN BLAZCO IBAÑEZ, S",D,L-S: 09:00-19:00,LA CARROSALEÑA S.C.A,R,GA,1.515,2023-11-19,2023-11-22
dieselogasolina.com,https://www.dieselogasolina.com/Buscador/Ficha/7427,39.987389,-4.14925,ES,TOLEDO,VILLAMIEL DE TOLEDO,CARRETERA CM-4011 KM. 18,I,L-V: 07:00-20:00; S-D: 09:00-16:00,REPSOL,P,SP95,1.609,2023-11-21,2023-11-22
dieselogasolina.com,https://www.dieselogasolina.com/Buscador/Ficha/20890,43.230444,-8.677361,ES,CORUÑA (A),CARBALLO,"RUA ISAAC ALBENIZ, S/N",D,L-D: 24H,PLENOIL,P,GA,1.337,2023-11-20,2023-11-22
dieselogasolina.com,https://www.dieselogasolina.com/Buscador/Ficha/12070,42.774083,-8.026028,ES,PONTEVEDRA,MARCELIN,"CARRETERA PO-840 KM. 67,300",D,L-D: 07:00-23:00,SHELL,P,SP98,1.729,2023-11-19,2023-11-22
dieselogasolina.com,https://www.dieselogasolina.com/Buscador/Ficha/8314,41.647278,-0.935167,ES,ZARAGOZA,ZARAGOZA,"RONDA OLIVER, S/N",I,L-D: 24H,REPSOL,P,SP98,1.778,2023-11-20,2023-11-22
dieselogasolina.com,https://www.dieselogasolina.com/Buscador/Ficha/11346,41.553694,2.250167,ES,BARCELONA,MONTMELO,"CARRER VIC, 69",D,L-D: 00:00-22:00,CAMPSA EXPRESS,P,GA+,1.495,2023-11-21,2023-11-22
dieselogasolina.com,https://www.dieselogasolina.com/Buscador/Ficha/20016,39.988389,-4.280611,ES,TOLEDO,TORRIJOS,"CALLE CALLE TEJAR, 67",N,L-D: 24H,SUPECO,P,GA,1.559,2023-11-20,2023-11-22
dieselogasolina.com,https://www.dieselogasolina.com/Buscador/Ficha/6539,28.439472,-16.462361,ES,SANTA CRUZ DE TENERIFE,GUIA,"CR  GENERAL DEL NORTE, 272",D,L-S: 06:00-22:00; D: 07:00-21:00,SHELL ACENTEJO,P,SP98,1.429,2023-11-19,2023-11-22
dieselogasolina.com,https://www.dieselogasolina.com/Buscador/Ficha/19183,38.894556,-0.724833,ES,VALENCIA / VALÈNCIA,VALLADA,AUTOVIA A-35 KM. 26,D,L-D: 24H,MLC,P,SP95,1.649,2023-11-19,2023-11-22
dieselogasolina.com,https://www.dieselogasolina.com/Buscador/Ficha/3848,43.078861,-2.156194,ES,GIPUZKOA,LEGORRETA,CARRETERA NACIONAL 1 KM. 425,I,L-D: 24H,REPSOL,P,GA+,1.749,2023-11-21,2023-11-22
dieselogasolina.com,https://www.dieselogasolina.com/Buscador/Ficha/15142,37.117306,-4.655333,ES,MÁLAGA,MOLLINA,"CR N-334, 143 (N-334 KM 143,2)",I,L-D: 07:00-22:00,ES LIMONAR,P,SP95,1.569,2023-11-19,2023-11-22
dieselogasolina.com,https://www.dieselogasolina.com/Buscador/Ficha/17686,28.033611,-16.645361,ES,SANTA CRUZ DE TENERIFE,ARONA,CARRETERA DE LAS GALLETAS KM. 91,D,L-S: 06:00-21:30; D: 07:00-13:00,BP TEN BEL,P,GA+,1.409,2023-11-16,2023-11-22
dieselogasolina.com,https://www.dieselogasolina.com/Buscador/Ficha/9954,36.884861,-4.845389,ES,MÁLAGA,ARDALES,"POLIGONO POL. INDUSTRIAL ARDALES PARCELA 1, 1",I,L-D: 24H,AGLA,P,GA+,1.539,2023-11-20,2023-11-22
dieselogasolina.com,https://www.dieselogasolina.com/Buscador/Ficha/11414,36.7445,-4.179083,ES,MÁLAGA,CAJIZ,"AUTOVIA AUTOVIA DEL MEDITERRANEO A-7 KM. 264,5",D,L-D: 24H,GUEROIL,P,GA,1.439,2023-11-19,2023-11-22
dieselogasolina.com,https://www.dieselogasolina.com/Buscador/Ficha/19576,37.604944,-0.967972,ES,MURCIA,CARTAGENA,"N-332 KM 1,15",N,L-D: 07:00-21:00,GASOLINERA CARTAGENA,P,GA,1.384,2023-11-20,2023-11-22
dieselogasolina.com,https://www.dieselogasolina.com/Buscador/Ficha/5513,37.682139,-1.681556,ES,MURCIA,LORCA,"AVENIDA EUROPA, 40",N,L-D: 24H,EUROPA,P,SP98,1.627,2023-11-19,2023-11-22
dieselogasolina.com,https://www.dieselogasolina.com/Buscador/Ficha/17339,40.865306,0.163472,ES,TERUEL,VALDERROBRES,CARRETERA A2412 KM. 23,D,L-D: 24H,GASOLEOS SERSUCO,P,GB,1.126,2023-11-20,2023-11-22
dieselogasolina.com,https://www.dieselogasolina.com/Buscador/Ficha/5325,36.61325,-4.526917,ES,MÁLAGA,TORREMOLINOS,"AU AP-7  224,00  D",D,L-D: 24H,REPSOL,P,SP95,1.679,2023-11-21,2023-11-22
dieselogasolina.com,https://www.dieselogasolina.com/Buscador/Ficha/12820,42.732583,-1.613972,ES,NAVARRA,IMARCOAIN,"AVENIDA ESTE (CIUDAD DEL TRANSPORTE PAMPLONA), 1",D,L-D: 24H,ANDAMUR PAMPLONA,P,GA,1.655,2023-11-21,2023-11-22
dieselogasolina.com,https://www.dieselogasolina.com/Buscador/Ficha/5105,40.499472,-4.059806,ES,MADRID,VALDEMORILLO,"CALLE SAN JUAN, 38",D,L-D: 06:00-23:00,REPSOL,P,SP98,1.779,2023-11-21,2023-11-22
dieselogasolina.com,https://www.dieselogasolina.com/Buscador/Ficha/5488,37.560833,-1.379083,ES,MURCIA,IFRE-CAÑADA DE GALLEGO,"CALLE CAMINO REAL, 7",I,L-D: 07:00-21:00,BP,P,SP95,1.599,2023-11-20,2023-11-22
dieselogasolina.com,https://www.dieselogasolina.com/Buscador/Ficha/21172,38.08625,-1.787333,ES,MURCIA,CEHEGIN,CARRETERA CRTA MURCIA KM. 146,N,L-V: 06:00-23:59; S-D: 00:00-23:59,CEPSA,P,GLP,0.999,2023-11-19,2023-11-22
dieselogasolina.com,https://www.dieselogasolina.com/Buscador/Ficha/5383,37.94325,-1.118583,ES,MURCIA,ALGEZARES,"MU-302 KM 3,9",N,L-D: 06:00-22:00,GALP,P,SP95,1.459,2023-11-21,2023-11-22
dieselogasolina.com,https://www.dieselogasolina.com/Buscador/Ficha/21713,43.204111,-8.685472,ES,CORUÑA (A),CARBALLO,"CALLE COMPOSTELA (QUINTANS), 24",D,L-V: 06:00-22:00; S-D: 07:00-22:00,MINGACHO OIL,P,SP98,1.768,2023-11-12,2023-11-22
dieselogasolina.com,https://www.dieselogasolina.com/Buscador/Ficha/13927,42.717694,-1.633556,ES,NAVARRA,TIEBAS,"NA121;CTRA FRANCIA KM 11,3",I,L-D: 24H,TIEBAS,P,GA,1.529,2023-11-12,2023-11-22
dieselogasolina.com,https://www.dieselogasolina.com/Buscador/Ficha/7904,41.536222,-4.6995,ES,VALLADOLID,BOECILLO,CARRETERA MADRID KM. 177,I,L-D: 07:00-23:00,CEPSA,P,GA+,1.729,2023-11-21,2023-11-22
dieselogasolina.com,https://www.dieselogasolina.com/Buscador/Ficha/12064,37.868583,-1.835,ES,MURCIA,PACA (LA),"CR MU-3211, 32,1",D,L-V: 07:00-20:00; S: 08:00-14:00,REPSOL,P,SP95,1.619,2023-11-20,2023-11-22
dieselogasolina.com,https://www.dieselogasolina.com/Buscador/Ficha/3057,38.480028,-4.953917,ES,CÓRDOBA,VISO (EL),"AVENIDA VIA DEL CALATRAVEÑO, 9",D,L-S: 06:00-22:00,REPSOL,P,GA,1.589,2023-11-21,2023-11-22
dieselogasolina.com,https://www.dieselogasolina.com/Buscador/Ficha/7864,39.487694,-0.404472,ES,VALENCIA / VALÈNCIA,VALENCIA,"CL MAESTRO RODRIGO, S.N.",D,L-D: 24H,REPSOL,P,SP98,1.849,2023-11-21,2023-11-22
dieselogasolina.com,https://www.dieselogasolina.com/Buscador/Ficha/6735,37.326556,-5.853056,ES,SEVILLA,ALCALA DE GUADAIRA,CARRETERA C-432 KM. 156,D,L-D: 06:00-23:00,REPSOL,P,SP95,1.669,2023-11-21,2023-11-22
dieselogasolina.com,https://www.dieselogasolina.com/Buscador/Ficha/20024,41.551722,2.0265,ES,BARCELONA,TERRASSA,"CALLE COLOM, 351",I,L-D: 06:00-22:00,REPSOL,P,SP98,1.779,2023-11-21,2023-11-22
dieselogasolina.com,https://www.dieselogasolina.com/Buscador/Ficha/1273,41.092972,-5.0,ES,ÁVILA,MADRIGAL ALTAS TORRES,"CARRETERA CR C610 KM. 26,2",I,L-S: 07:00-22:00; D: 08:00-14:00,F.COCA P. S.L.,P,GB,1.289,2023-11-21,2023-11-22
dieselogasolina.com,https://www.dieselogasolina.com/Buscador/Ficha/19261,39.059528,-0.5445,ES,VALENCIA / VALÈNCIA,BENEIXIDA,"AUTOVIA A7 KM. 389,80",I,L-D: 06:00-22:00,GALP,P,GA+,1.528,2023-11-19,2023-11-22
dieselogasolina.com,https://www.dieselogasolina.com/Buscador/Ficha/4626,40.548306,-3.662056,ES,MADRID,ALCOBENDAS,"AVENIDA VALDELAPARRA (DE), 5",N,L-D: 24H,GALP,P,GA+,1.709,2023-11-21,2023-11-22
dieselogasolina.com,https://www.dieselogasolina.com/Buscador/Ficha/4261,42.458556,-5.882444,ES,LEÓN,HOSPITAL DE ORBIGO,CARRETERA NACIONAL 120 KM. 335,I,L-D: 06:00-22:00,CEPSA,P,GB,1.332,2023-11-21,2023-11-22
dieselogasolina.com,https://www.dieselogasolina.com/Buscador/Ficha/19312,40.342167,-3.805333,ES,MADRID,ALCORCON,"CALLE EBANISTAS,, 2",I,L-D: 24H,REPSOL URTINSA 365,P,GLP,0.899,2023-11-21,2023-11-22
dieselogasolina.com,https://www.dieselogasolina.com/Buscador/Ficha/12337,37.465056,-5.650917,ES,SEVILLA,CARMONA,"PASEO PASEO CRUZ DEL CARMEN, S/N",D,L-S: 06:00-22:00; D: 09:00-14:00,REPSOL,P,GA,1.639,2023-11-21,2023-11-22
dieselogasolina.com,https://www.dieselogasolina.com/Buscador/Ficha/17531,39.392972,-0.330806,ES,VALENCIA / VALÈNCIA,CASTELLAR-OLIVERAL,"CALLE CARRER DEL RIU, 513",N,L-D: 07:00-22:00,BP LA DEHESA,P,GA,1.645,2023-11-20,2023-11-22
dieselogasolina.com,https://www.dieselogasolina.com/Buscador/Ficha/18814,37.717639,-1.415639,ES,MURCIA,PARETON,CARRETERA CARRETERA COMARCAL MU-3315 KM. 9,D,L: 06:30-22:00,REPSOL,P,GA,1.619,2023-11-21,2023-11-22
dieselogasolina.com,https://www.dieselogasolina.com/Buscador/Ficha/12073,37.629278,-4.28325,ES,CÓRDOBA,BAENA,CARRETERA A-305 KM. 53,D,L-D: 24H,OLIVARERA NTRA. SRA. DE GUADALUPE S.C.A,R,GB,1.114,2023-11-19,2023-11-22
dieselogasolina.com,https://www.dieselogasolina.com/Buscador/Ficha/1383,38.910667,-6.340417,ES,BADAJOZ,MERIDA,"CARRETERA E-90/N-V KM. 340,9",I,L-D: 24H,REPSOL,P,GA,1.609,2023-11-21,2023-11-22
dieselogasolina.com,https://www.dieselogasolina.com/Buscador/Ficha/3114,43.365639,-8.418917,ES,CORUÑA (A),CORUÑA (A),"CALLE GREGORIO HERNANDEZ, 12,14",D,L-V: 08:00-22:00; S: 09:00-21:00; D: 10:00-21:00,CEPSA,P,GA,1.623,2023-11-21,2023-11-22
dieselogasolina.com,https://www.dieselogasolina.com/Buscador/Ficha/14156,41.6435,2.268028,ES,BARCELONA,AMETLLA DEL VALLES (L'),"CALLE SECTOR MAS DORCA, 2",N,L-D: 24H,PETROLIS INDEPENDENTS - PETRO7,P,GA+,1.499,2023-11-19,2023-11-22
dieselogasolina.com,https://www.dieselogasolina.com/Buscador/Ficha/1414,38.553722,-6.233,ES,BADAJOZ,RIBERA DEL FRESNO,"CARRETERA EXT342 KM. 9,100",D,L-D: 06:00-22:00,CAMPSA,P,GA+,1.659,2023-11-21,2023-11-22
dieselogasolina.com,https://www.dieselogasolina.com/Buscador/Ficha/8309,41.625472,-0.888389,ES,ZARAGOZA,ZARAGOZA,"AVENIDA FRAY JULIAN GARCES, 112",D,L-D: 06:00-22:00,PETRONOR,P,GA+,1.709,2023-11-21,2023-11-22
dieselogasolina.com,https://www.dieselogasolina.com/Buscador/Ficha/19035,38.596361,-0.663889,ES,ALICANTE,CASTALLA,"CALLE SAN VICENTE DEL RASPEIG, 4",D,L-D: 24H,MASOIL CASTALLA,P,GA,1.498,2023-11-21,2023-11-22
dieselogasolina.com,https://www.dieselogasolina.com/Buscador/Ficha/8576,38.194667,-3.6715,ES,JAÉN,GUARROMAN,CARRETERA N-IV KM. 280,N,L-D: 24H,VALCARCE,P,GB,1.249,2023-11-20,2023-11-22
dieselogasolina.com,https://www.dieselogasolina.com/Buscador/Ficha/6291,42.214083,-8.700889,ES,PONTEVEDRA,VIGO,"AVENIDA MADRID, S/N",N,L-D: 24H,ALCAMPO VIGO,P,GA,1.565,2023-11-20,2023-11-22
dieselogasolina.com,https://www.dieselogasolina.com/Buscador/Ficha/16287,40.559528,-3.62175,ES,MADRID,SAN SEBASTIAN DE LOS REYES,"AVENIDA TENERIFE (DE), 14",N,L-D: 24H,CEPSA,P,GA,1.559,2023-11-21,2023-11-22
dieselogasolina.com,https://www.dieselogasolina.com/Buscador/Ficha/17540,37.416333,-1.593833,ES,MURCIA,AGUILAS,"CARRETERA DE CIRCUNVALACIÓN, S/N KM.",N,L-D: 06:30-22:30,BP TRUCKSTOP AGUILAS,P,GB,1.303,2023-11-21,2023-11-22
dieselogasolina.com,https://www.dieselogasolina.com/Buscador/Ficha/6280,42.696083,-8.240194,ES,PONTEVEDRA,SILLEDA,"C/ FERIAL, 1 (N-525 KM 301,5)",D,L: 07:00-00:00,CEPSA,P,SP98,1.702,2023-11-17,2023-11-22
dieselogasolina.com,https://www.dieselogasolina.com/Buscador/Ficha/6786,37.482583,-5.644111,ES,SEVILLA,CARMONA,"CARRETERA SE-122 KM. 0,65",D,L-D: 06:00-22:00,SAN TEODOMIRO,P,SP95,1.529,2023-11-19,2023-11-22
dieselogasolina.com,https://www.dieselogasolina.com/Buscador/Ficha/5373,37.40875,-1.586222,ES,MURCIA,AGUILAS,"CTRA. DE LORCA, Nº 2 (C-3211A KM 94,6)",I,L-D: 06:00-23:00,CEPSA,P,GA,1.479,2023-11-21,2023-11-22
dieselogasolina.com,https://www.dieselogasolina.com/Buscador/Ficha/15038,42.292028,-1.971111,ES,RIOJA (LA),CALAHORRA,"AUTOPISTA AP-68 KM. 176,9",D,L-D: 07:00-23:00,PETRONOR,P,SP98,1.739,2023-11-21,2023-11-22
dieselogasolina.com,https://www.dieselogasolina.com/Buscador/Ficha/9732,39.483056,-0.3785,ES,VALENCIA / VALÈNCIA,VALENCIA,"CALLE LLANO DE LA ZAIDIA, 6",D,L-D: 24H,E.S. LA TORRETA,P,GA+,1.639,2023-11-20,2023-11-22
dieselogasolina.com,https://www.dieselogasolina.com/Buscador/Ficha/2003,41.482778,2.050833,ES,BARCELONA,SANT CUGAT DEL VALLES,"AVENIDA AUGUSTA, SN",D,L-S: 06:00-22:00; D: 07:00-22:00,REPSOL,P,SP95,1.689,2023-11-21,2023-11-22
dieselogasolina.com,https://www.dieselogasolina.com/Buscador/Ficha/1704,41.407167,2.122361,ES,BARCELONA,BARCELONA,"CALLE IRADIER, S/N",N,L-D: 24H,SHELL,P,SP98,1.849,2023-11-20,2023-11-22
dieselogasolina.com,https://www.dieselogasolina.com/Buscador/Ficha/9848,37.747583,-3.696472,ES,JAÉN,GUARDIA DE JAEN (LA),CARRETERA AUTOVÍA DE JAÉN KM. SN,I,L-D: 07:00-22:00,AGLA,P,GA,1.489,2023-11-19,2023-11-22
dieselogasolina.com,https://www.dieselogasolina.com/Buscador/Ficha/3037,37.715,-4.863917,ES,CÓRDOBA,QUINTANA,CARRETERA N-IVA KM. 424,I,L-D: 24H,CEPSA,P,SP95,1.589,2023-11-20,2023-11-22
dieselogasolina.com,https://www.dieselogasolina.com/Buscador/Ficha/8443,39.277639,-2.782694,ES,CIUDAD REAL,SOCUELLAMOS,"POLIGONO EL LLANO, CALLE A, PARCELA, 134",N,L-D: 24H,"OLIVARERA DE SOCUELLAMOS, S.COOP. DE C-LM",P,GA,1.538,2023-11-19,2023-11-22
dieselogasolina.com,https://www.dieselogasolina.com/Buscador/Ficha/17207,42.0315,-4.524167,ES,PALENCIA,PALENCIA,"CARRETERA CARRETERA DE SANTANDER KM. 12,3",D,L-D: 24H,BEROIL,P,GA,1.319,2023-11-20,2023-11-22
dieselogasolina.com,https://www.dieselogasolina.com/Buscador/Ficha/520,38.999722,-1.854556,ES,ALBACETE,ALBACETE,"CL PASEO DE LA CUBA, 15",D,L-D: 06:00-22:00,REPSOL,P,GA,1.619,2023-11-21,2023-11-22
dieselogasolina.com,https://www.dieselogasolina.com/Buscador/Ficha/1955,41.506861,2.037306,ES,BARCELONA,RUBI,"CALLE PAGESIA, 2",N,L-V: 06:00-21:00; S: 09:00-14:00,BP,P,SP98,1.839,2023-11-19,2023-11-22
dieselogasolina.com,https://www.dieselogasolina.com/Buscador/Ficha/19887,42.909778,-8.4925,ES,CORUÑA (A),SANTIAGO DE COMPOSTELA,"RUA PAIS VASCO, 65",D,L-D: 07:00-23:00,CEPSA,P,GLP,0.869,2023-11-19,2023-11-22
dieselogasolina.com,https://www.dieselogasolina.com/Buscador/Ficha/19695,38.881694,-6.964,ES,BADAJOZ,BADAJOZ,"AVENIDA CIRCUNVALACIÓN REINA SOFÍA, SN",D,L-S: 06:00-22:00; D: 07:00-22:00,REPSOL,P,SP95,1.629,2023-11-21,2023-11-22
dieselogasolina.com,https://www.dieselogasolina.com/Buscador/Ficha/14478,39.957833,-4.848778,ES,TOLEDO,TALAVERA DE LA REINA,"AVENIDA PORTUGAL, 66",D,L-D: 06:00-22:00,CEPSA,P,SP95,1.589,2023-11-21,2023-11-22
dieselogasolina.com,https://www.dieselogasolina.com/Buscador/Ficha/3633,37.298194,-3.129389,ES,GRANADA,GUADIX,"CARRETERA N-324 KM. 299,1",D,L-D: 07:00-23:00,REPSOL,P,GA+,1.689,2023-11-21,2023-11-22
dieselogasolina.com,https://www.dieselogasolina.com/Buscador/Ficha/3246,42.861889,-8.541889,ES,CORUÑA (A),SANTIAGO DE COMPOSTELA,"RUA RESTOLLAL, 52",D,L-D: 07:00-23:00,REPSOL,P,GA,1.639,2023-11-20,2023-11-22
dieselogasolina.com,https://www.dieselogasolina.com/Buscador/Ficha/4113,37.592694,-3.603417,ES,JAÉN,CAMPILLO DE ARENAS,"CL AUTOVIA BAILEN-MOTRIL I, 69,4",I,L-D: 24H,REPSOL,P,GA+,1.709,2023-11-21,2023-11-22
dieselogasolina.com,https://www.dieselogasolina.com/Buscador/Ficha/10922,41.586833,-3.058417,ES,SORIA,BURGO DE OSMA (EL),"CR N-122, 210",D,L-D: 07:00-23:00,REPSOL,P,SP95,1.648,2023-11-20,2023-11-22
dieselogasolina.com,https://www.dieselogasolina.com/Buscador/Ficha/18434,43.221333,-2.406611,ES,GIPUZKOA,ELGOIBAR,"CALLE LERUN TXIKI MORTERIKA, 2",N,L-D: 24H,MLC,P,GA+,1.579,2023-11-19,2023-11-22
dieselogasolina.com,https://www.dieselogasolina.com/Buscador/Ficha/2151,42.650611,-3.069667,ES,BURGOS,AMEYUGO,"AUTOPISTA AP-1 (MRG.DCHO.) KM. 63,5",D,L-D: 24H,CEPSA,P,GA,1.665,2023-11-21,2023-11-22
dieselogasolina.com,https://www.dieselogasolina.com/Buscador/Ficha/4820,40.373889,-3.771556,ES,MADRID,MADRID,"AVENIDA AVIACION, 32",D,L-D: 24H,REPSOL,P,SP95,1.649,2023-11-21,2023-11-22
dieselogasolina.com,https://www.dieselogasolina.com/Buscador/Ficha/3572,37.206667,-3.048333,ES,GRANADA,CALAHORRA (LA),"CARRETERA N-324 KM. 238,1",D,L-V: 07:00-18:00,REPSOL,P,SP95,1.589,2023-11-21,2023-11-22
dieselogasolina.com,https://www.dieselogasolina.com/Buscador/Ficha/20649,37.876528,-4.846667,ES,CÓRDOBA,CORDOBA,"CARRETERA PALMA DEL RÍO KM. 5,5",D,L-D: 06:00-22:00,PETROIL ENERGY LA GRANJA,P,GA,1.499,2023-11-19,2023-11-22
dieselogasolina.com,https://www.dieselogasolina.com/Buscador/Ficha/3529,41.785639,2.761694,ES,GIRONA,VIDRERES,"AUTOVIA C-35 KM. 84,5",I,L-D: 06:00-22:00,GALP,P,SP95,1.639,2023-11-21,2023-11-22
dieselogasolina.com,https://www.dieselogasolina.com/Buscador/Ficha/13182,42.716,-0.308444,ES,HUESCA,TRAMACASTILLA DE TENA,CARRETERA A-136 KM. 11,D,L-D: 07:00-22:00,REPSOL,P,SP98,1.719,2023-11-21,2023-11-22
dieselogasolina.com,https://www.dieselogasolina.com/Buscador/Ficha/15840,40.619694,-3.242333,ES,GUADALAJARA,CABANILLAS DEL CAMPO,"AVENIDA CASTILLA LA MANCHA, 5",N,L-D: 24H,AREA DE SERVICIO A2 BP CABANILLAS 365,P,SP95,1.579,2023-11-21,2023-11-22
dieselogasolina.com,https://www.dieselogasolina.com/Buscador/Ficha/11914,41.708,-2.775417,ES,SORIA,ALDEHUELA DE CALATAÑAZOR,CARRETERA N-122 KM. 185,D,L-D: 07:00-22:00,CEPSA,P,GA+,1.665,2023-11-21,2023-11-22
dieselogasolina.com,https://www.dieselogasolina.com/Buscador/Ficha/18884,40.770722,-4.39875,ES,SEGOVIA,VILLACASTIN,AUTOPISTA AP-6 KM. 80,I,L-D: 24H,BP AP6 VILLACASTIN SUR,P,SP98,1.751,2023-11-21,2023-11-22
dieselogasolina.com,https://www.dieselogasolina.com/Buscador/Ficha/10335,42.245833,-3.703139,ES,BURGOS,SARRACIN,"CARRETERA N-I KM. 228,4",D,L-D: 24H,GALP,P,SP98,1.759,2023-11-21,2023-11-22
dieselogasolina.com,https://www.dieselogasolina.com/Buscador/Ficha/21265,41.592667,1.89825,ES,BARCELONA,VACARISSES,"CARRETERA C-58 KM. 32,5",I,L-D: 24H,LOWCOSTFUEL,P,SP95,1.489,2023-11-20,2023-11-22
dieselogasolina.com,https://www.dieselogasolina.com/Buscador/Ficha/19995,43.335806,-1.752694,ES,GIPUZKOA,IRUN,"CARRETERA N-121 A KM. 76,4",D,L-V: 06:00-22:00; S-D: 07:00-22:00,BIDASOIL,P,GA+,1.509,2023-11-20,2023-11-22
dieselogasolina.com,https://www.dieselogasolina.com/Buscador/Ficha/17362,37.05175,-4.657889,ES,MÁLAGA,ANTEQUERA,"CARRETERA A-384 KM. 77,6",N,L-D: 24H,BP,P,SP98,1.791,2023-11-20,2023-11-22
dieselogasolina.com,https://www.dieselogasolina.com/Buscador/Ficha/3936,37.387028,-6.399694,ES,HUELVA,MANZANILLA,"CARRETERA A472 KM. 34,90",D,X: 07:00-15:00,CEPSA,P,SP95,1.669,2023-11-19,2023-11-22
dieselogasolina.com,https://www.dieselogasolina.com/Buscador/Ficha/17431,43.045778,-8.670222,ES,CORUÑA (A),BEMBIBRE,CTRA CARBALLO - SANTIAGO KM 19.9,I,L-D: 07:00-23:00,VALCARCE,P,SP95,1.738,2023-11-19,2023-11-22
dieselogasolina.com,https://www.dieselogasolina.com/Buscador/Ficha/14781,40.614917,-3.703389,ES,MADRID,TRES CANTOS,"CL AV DE LA INDUSTRIA, 58",D,L-D: 24H,REPSOL,P,SP98,1.779,2023-11-19,2023-11-22
dieselogasolina.com,https://www.dieselogasolina.com/Buscador/Ficha/2389,36.75825,-5.512694,ES,CÁDIZ,BOSQUE (EL),"CARRETERA EL BOSQUE-ARCOS KM. 0,5",N,L-V: 07:00-21:00; S-D: 08:00-21:00,GALP,P,SP95,1.679,2023-11-19,2023-11-22
dieselogasolina.com,https://www.dieselogasolina.com/Buscador/Ficha/12284,40.628806,-3.995389,ES,MADRID,COLLADO VILLALBA,"AUTOPISTA VIA DE SERVICIO M.D. KM. 38,300",D,L-D: 24H,BP EII,P,SP98,1.809,2023-11-19,2023-11-22
dieselogasolina.com,https://www.dieselogasolina.com/Buscador/Ficha/16536,37.124861,-3.61975,ES,GRANADA,OGIJARES,"CARRETERA CR GR-32 SE (SURESTE), 1,8 KM. 1,8",D,L-D: 06:00-23:00,REPSOL,P,SP98,1.729,2023-11-21,2023-11-22
dieselogasolina.com,https://www.dieselogasolina.com/Buscador/Ficha/10548,42.544639,-6.782139,ES,LEÓN,TORAL DE LOS VADOS,N-120 KM 429,D,L-D: 07:00-23:00,VALCARCE,P,GA+,1.659,2023-11-19,2023-11-22
dieselogasolina.com,https://www.dieselogasolina.com/Buscador/Ficha/2189,43.075361,-3.542806,ES,BURGOS,ESPINOSA DE LOS MONTEROS,"CALLE ESTACION, S/N",I,L-D: 07:00-22:00,A.S. LA ESTACION DE ESPINOSA,P,SP95,1.659,2023-11-20,2023-11-22
dieselogasolina.com,https://www.dieselogasolina.com/Buscador/Ficha/15559,37.571778,-6.107944,ES,SEVILLA,PAJANOSAS (LAS),AUTOVIA RUTA DE LA PLATA KM. 790,D,L-D: 24H,REPSOL,P,SP98,1.749,2023-11-20,2023-11-22
dieselogasolina.com,https://www.dieselogasolina.com/Buscador/Ficha/8318,41.65375,-0.869194,ES,ZARAGOZA,ZARAGOZA,"PASEO ECHEGARAY Y CABALLERO, 99",I,L-V: 07:00-22:00; S: 09:00-14:00,CEPSA,P,GA+,1.648,2023-11-20,2023-11-22
dieselogasolina.com,https://www.dieselogasolina.com/Buscador/Ficha/15556,38.7635,-6.854917,ES,BADAJOZ,ALBUERA (LA),"CARRETERA N-432 KM. 15,98",D,L-V: 07:00-21:00,CEPSA,P,GA,1.619,2023-11-19,2023-11-22
dieselogasolina.com,https://www.dieselogasolina.com/Buscador/Ficha/12443,41.713583,2.533278,ES,BARCELONA,GUALBA DE BAIX,"CALLE RIERA DE GUALBA, 1",N,L-D: 24H,BP GUALBA,P,GA+,1.719,2023-11-21,2023-11-22
dieselogasolina.com,https://www.dieselogasolina.com/Buscador/Ficha/4304,42.555667,-6.615861,ES,LEÓN,PONFERRADA,"AVENIDA DE GALICIA, S/N",I,L-D: 07:00-23:00,GALP,P,GA+,1.639,2023-11-19,2023-11-22
dieselogasolina.com,https://www.dieselogasolina.com/Buscador/Ficha/20553,41.505,2.19775,ES,BARCELONA,LLAGOSTA (LA),"CARRER CA MONTSENY CANTONADA RIERA SECA, S/N",D,L: 24H,NUROIL,P,GA,1.429,2023-11-19,2023-11-22
dieselogasolina.com,https://www.dieselogasolina.com/Buscador/Ficha/8048,43.145611,-2.644972,ES,BIZKAIA,IZURZA,BI-623 KM 31,N,L: 06:00-22:00,AVIA,P,SP98,1.749,2023-11-16,2023-11-22
dieselogasolina.com,https://www.dieselogasolina.com/Buscador/Ficha/11514,38.066722,-1.178139,ES,MURCIA,MOLINA DE SEGURA,"AVENIDA DEL GOLF, S/N",N,L-D: 06:00-00:00,SHELL,P,GA,1.589,2023-11-20,2023-11-22
dieselogasolina.com,https://www.dieselogasolina.com/Buscador/Ficha/10271,28.158972,-16.762889,ES,SANTA CRUZ DE TENERIFE,TIJOCO BAJO,"CARRETERA CTRA.GRAL.ADEJE A GUIA DE ISORA KM. 118,200",D,L-D: 06:00-22:00,DISA TIJOCO,P,SP98,1.542,2023-11-19,2023-11-22
dieselogasolina.com,https://www.dieselogasolina.com/Buscador/Ficha/876,38.38625,-0.447417,ES,ALICANTE,SANTA FAZ,"CARRETERA 112,6 KM. N-332",D,L-D: 06:30-22:30,REPSOL,P,SP98,1.779,2023-11-21,2023-11-22
dieselogasolina.com,https://www.dieselogasolina.com/Buscador/Ficha/5868,42.032111,-7.180722,ES,OURENSE,EROSA,"CARRETERA N-525 KM. 136,7",I,L-D: 24H,REPSOL,P,SP95,1.579,2023-11-21,2023-11-22
dieselogasolina.com,https://www.dieselogasolina.com/Buscador/Ficha/9632,43.278472,-1.98425,ES,GIPUZKOA,HERNANI,AUTOPISTA AP-8 KM. 22,I,L-D: 24H,REPSOL,P,GA+,1.769,2023-11-21,2023-11-22
dieselogasolina.com,https://www.dieselogasolina.com/Buscador/Ficha/10549,28.516833,-13.876306,ES,PALMAS (LAS),PUERTO DEL ROSARIO,"CARRETERA LA OLIVA KM. 2,7",D,L-D: 06:30-22:00,DISA,P,GA+,1.38,2023-11-20,2023-11-22
dieselogasolina.com,https://www.dieselogasolina.com/Buscador/Ficha/1979,42.2265,1.745389,ES,BARCELONA,SALDES,"CARRETERA B-400 KM. 14,8",I,L-D: 06:00-22:00,REPSOL,P,SP98,1.819,2023-11-19,2023-11-22
dieselogasolina.com,https://www.dieselogasolina.com/Buscador/Ficha/20984,38.058389,-0.746611,ES,ALICANTE,ALGORFA,"POLIGONO SECTOR VIII - EL ZOCO, S/N",N,L-D: 06:00-22:00,BP EL ZOCO,P,GA+,1.709,2023-11-21,2023-11-22
dieselogasolina.com,https://www.dieselogasolina.com/Buscador/Ficha/7876,39.561667,-0.633306,ES,VALENCIA / VALÈNCIA,VILAMARXANT,"POLIGONO ENCHIGALAN DEL RULLO PARCELA 72, 72",N,L-D: 24H,RURAL SAN VICENTE FERRER,P,GA+,1.529,2023-11-15,2023-11-22
dieselogasolina.com,https://www.dieselogasolina.com/Buscador/Ficha/15081,41.495667,-0.258889,ES,ZARAGOZA,ALMOLDA (LA),"CARRETERA N-II KM. 381,7",D,L-D: 24H,CEPSA,P,GA+,1.705,2023-11-21,2023-11-22
dieselogasolina.com,https://www.dieselogasolina.com/Buscador/Ficha/17705,37.285806,-3.674972,ES,GRANADA,CALICASAS,"CARRETERA N-323 KM. 114,5",D,L-D: 07:00-22:00,BP CUBILLAS,P,GA,1.619,2023-11-17,2023-11-22
dieselogasolina.com,https://www.dieselogasolina.com/Buscador/Ficha/19812,41.00725,0.910639,ES,TARRAGONA,HOSPITALET DE L'INFANT,"CARRER DE JOAN ORÓ, 2",N,L: 24H,ALAS CENTRAL,P,GA+,1.425,2023-11-16,2023-11-22
dieselogasolina.com,https://www.dieselogasolina.com/Buscador/Ficha/7280,39.468417,-3.621472,ES,TOLEDO,CONSUEGRA,"CTRA. DE LOS YEBENES, 24,8",N,L-D: 24H,COOP. EL AMARGUILLO,R,GB,1.035,2023-11-19,2023-11-22
dieselogasolina.com,https://www.dieselogasolina.com/Buscador/Ficha/14813,38.532389,-1.694889,ES,ALBACETE,HELLIN,CARRETERA CM 412 KM. 273,D,L-D: 06:30-22:00,PETROGAS,P,SP95,1.529,2023-11-17,2023-11-22
dieselogasolina.com,https://www.dieselogasolina.com/Buscador/Ficha/3216,43.347388,-8.425969,ES,CORUÑA (A),POLIGONO INDUSTRIAL LA GRELA-BENS,"AVDA. DE ARTEIXO, PARCELA 83-B 1-2 (POLIG. LA GRELA)",N,L-D: 07:00-23:00,GALP,P,SP95,1.569,2023-11-21,2023-11-22
dieselogasolina.com,https://www.dieselogasolina.com/Buscador/Ficha/11704,41.276917,-3.485139,ES,SEGOVIA,RIAZA,"CARRETERA NACIONAL 110 KM. 117,800",D,L-D: 07:00-23:00,BUQUERIN,P,GA+,1.619,2023-11-19,2023-11-22
dieselogasolina.com,https://www.dieselogasolina.com/Buscador/Ficha/778,38.094028,-0.66075,ES,ALICANTE,GUARDAMAR DEL SEGURA,"PARTIDA LA REDONDA, S/N",D,L-D: 06:00-23:00,GÓMEZ Y SIRVENT,P,SP98,1.789,2023-11-20,2023-11-22
dieselogasolina.com,https://www.dieselogasolina.com/Buscador/Ficha/21018,38.371389,-0.457694,ES,ALICANTE,ALICANTE/ALACANT,"AVENIDA DENIA, 0",D,L-D: 24H,PLENOIL,P,GA,1.339,2023-11-20,2023-11-22
dieselogasolina.com,https://www.dieselogasolina.com/Buscador/Ficha/199,42.777528,-8.406444,ES,CORUÑA (A),PONTE ULLA,CARRETERA N-525 KM. 322,D,L-D: 24H,PONTEULLA,P,GB,1.299,2023-11-20,2023-11-22
dieselogasolina.com,https://www.dieselogasolina.com/Buscador/Ficha/8014,43.419889,-2.736361,ES,BIZKAIA,BERMEO,"CR BI-631, 32",I,L-D: 06:00-22:00,PETRONOR,P,SP95,1.629,2023-11-21,2023-11-22
dieselogasolina.com,https://www.dieselogasolina.com/Buscador/Ficha/3448,42.398417,2.882667,ES,GIRONA,LA JONQUERA,"CARRETERA N-2 KM. 772,5",D,L-D: 24H,REPSOL,P,GLP,0.939,2023-11-21,2023-11-22
dieselogasolina.com,https://www.dieselogasolina.com/Buscador/Ficha/16180,40.441278,-3.501139,ES,MADRID,SAN FERNANDO DE HENARES,"CALLE CERRAJEROS (DE LOS), 10",N,L-D: 24H,BP SAN FERNANDO PUERTA DE MADRID 365 II,P,GB,1.299,2023-11-21,2023-11-22
dieselogasolina.com,https://www.dieselogasolina.com/Buscador/Ficha/18811,38.989389,-0.161917,ES,VALENCIA / VALÈNCIA,GRAU I PLATJA,"AVENIDA DEL GRAO, 164,",D,L-D: 06:00-22:00,MOSCARDÓ,P,SP95,1.639,2023-11-19,2023-11-22
dieselogasolina.com,https://www.dieselogasolina.com/Buscador/Ficha/15744,36.63275,-6.36725,ES,CÁDIZ,ROTA,"AVENIDA LIBERTAD, 26",D,L-D: 24H,BALLENOIL,P,SP95,1.579,2023-11-19,2023-11-22
dieselogasolina.com,https://www.dieselogasolina.com/Buscador/Ficha/20631,43.653333,-8.045194,ES,CORUÑA (A),CEDEIRA,"CARRETERA FERROL-CAMPO HOSPITAL KM. 33,6",D,L-D: 07:00-23:00,GALP,P,GB,1.254,2023-11-21,2023-11-22
dieselogasolina.com,https://www.dieselogasolina.com/Buscador/Ficha/2595,43.453556,-3.824139,ES,CANTABRIA,SANTANDER,"CL CASTILLA, 91",D,L-D: 06:00-22:00,REPSOL,P,GA,1.629,2023-11-21,2023-11-22
dieselogasolina.com,https://www.dieselogasolina.com/Buscador/Ficha/17837,42.368111,-3.728194,ES,BURGOS,BURGOS,"CALLE CONDADO DE TREVIÑO, 2",D,L-D: 24H,BIESA,P,SP95,1.589,2023-11-19,2023-11-22
dieselogasolina.com,https://www.dieselogasolina.com/Buscador/Ficha/4539,42.940306,-7.393611,ES,LUGO,GOMEAN,AUTOVIA A6 KM. 479,D,L-D: 24H,REPSOL,P,SP98,1.739,2023-11-20,2023-11-22
dieselogasolina.com,https://www.dieselogasolina.com/Buscador/Ficha/785,38.626556,-0.567917,ES,ALICANTE,IBI,"AVENIDA JUAN CARLOS I, 2",I,L-S: 06:00-22:00; D: 07:00-15:00,REPSOL,P,GA+,1.699,2023-11-21,2023-11-22
dieselogasolina.com,https://www.dieselogasolina.com/Buscador/Ficha/1499,39.812444,2.89,ES,BALEARS (ILLES),ESCORCA,"CARRETERA PM - 213 KM. 14,8",D,L-D: 24H,REPSOL,P,SP98,1.829,2023-11-19,2023-11-22
dieselogasolina.com,https://www.dieselogasolina.com/Buscador/Ficha/6272,42.084444,-8.496806,ES,PONTEVEDRA,SALVATERRA DE MIÑO,"RUA ROSALIA DE CASTRO, 56",D,L-S: 07:00-23:00; D: 08:00-23:00,CEPSA,P,SP98,1.821,2023-11-19,2023-11-22
dieselogasolina.com,https://www.dieselogasolina.com/Buscador/Ficha/13245,36.798611,-2.601222,ES,ALMERÍA,ROQUETAS DE MAR,"CTRA. ALICUN KM 5.05 (A-391 KM 3,8)",D,L-D: 06:00-23:00,REPSOL,P,SP95,1.679,2023-11-19,2023-11-22
dieselogasolina.com,https://www.dieselogasolina.com/Buscador/Ficha/4976,40.394861,-3.493361,ES,MADRID,MEJORADA DEL CAMPO,"CARRETERA M208 KM. 9,600",I,L-D: 24H,REPSOL,P,GA+,1.699,2023-11-21,2023-11-22
dieselogasolina.com,https://www.dieselogasolina.com/Buscador/Ficha/16349,38.3615,-4.84125,ES,CÓRDOBA,POZOBLANCO,"CALLE PRIMERA (PG.I.DEH.BOYAL), 50",D,L-D: 24H,PETROVAP,P,GA,1.459,2023-11-21,2023-11-22
dieselogasolina.com,https://www.dieselogasolina.com/Buscador/Ficha/11949,40.574056,-2.079278,ES,CUENCA,BETETA,CARRETERA CM210 KM. 53,D,L-D: 08:00-20:00,PETRONOR,P,SP95,1.589,2023-11-21,2023-11-22
dieselogasolina.com,https://www.dieselogasolina.com/Buscador/Ficha/16760,41.553389,2.007722,ES,BARCELONA,TERRASSA,"CALLE RAMBLA PARE ALEGRE, S/N",D,L-D: 24H,PETROCAT DIRECTE,P,GA,1.519,2023-11-21,2023-11-22
dieselogasolina.com,https://www.dieselogasolina.com/Buscador/Ficha/7185,40.824694,-0.201611,ES,TERUEL,AGUAVIVA,"AVENIDA LA FUENTE,, S/N",N,L-V: 07:00-21:00,E.S. AGUAVIVA,P,GA+,1.719,2023-11-12,2023-11-22
dieselogasolina.com,https://www.dieselogasolina.com/Buscador/Ficha/10949,41.657444,2.450278,ES,BARCELONA,SANTA MARIA DE PALAUTORDERA,"CR C-35 , P.K. 51",I,L-D: 06:00-22:00,REPSOL,P,GLP,0.969,2023-11-21,2023-11-22
dieselogasolina.com,https://www.dieselogasolina.com/Buscador/Ficha/11628,40.951056,-5.727361,ES,SALAMANCA,SALAMANCA,CARRETERA N 620 KM. 244,D,L-V: 07:30-21:30; S-D: 08:00-15:00,REPSOL,P,SP95,1.589,2023-11-21,2023-11-22
dieselogasolina.com,https://www.dieselogasolina.com/Buscador/Ficha/17237,36.841972,-2.439056,ES,ALMERÍA,ALMERIA,"AVENIDA SIERRA ALHAMILLA, 310",N,L-D: 24H,LA TORRE,P,GA,1.567,2023-11-15,2023-11-22
dieselogasolina.com,https://www.dieselogasolina.com/Buscador/Ficha/3404,41.816222,3.050861,ES,GIRONA,CASTELL D'ARO,"AVENIDA CASTELL D'ARO, 122",I,L-D: 06:00-22:00,REPSOL,P,GA,1.609,2023-11-21,2023-11-22
dieselogasolina.com,https://www.dieselogasolina.com/Buscador/Ficha/21232,42.350056,-8.618528,ES,PONTEVEDRA,VILABOA,"LUGAR PAREDES, 32,33",I,L-D: 07:00-23:00,BP BLANCO (MI),P,SP98,1.821,2023-11-21,2023-11-22
dieselogasolina.com,https://www.dieselogasolina.com/Buscador/Ficha/6423,40.660556,-5.622639,ES,SALAMANCA,MONTEJO,AUTOVIA A-66 KM. 375,I,L-D: 24H,CEPSA,P,GA+,1.715,2023-11-19,2023-11-22
dieselogasolina.com,https://www.dieselogasolina.com/Buscador/Ficha/16143,40.445056,-3.462361,ES,MADRID,TORREJON DE ARDOZ,"POZO DE LAS NIEVES, S.N.",N,L-D: 06:00-22:00,CEPSA,P,SP95,1.669,2023-11-19,2023-11-22
dieselogasolina.com,https://www.dieselogasolina.com/Buscador/Ficha/20317,41.324417,-4.915944,ES,VALLADOLID,MEDINA DEL CAMPO,"CALLE ALARIFES, 3",D,L-D: 24H,LOWCOST MEDINA,P,GA,1.539,2023-11-19,2023-11-22
dieselogasolina.com,https://www.dieselogasolina.com/Buscador/Ficha/4681,40.396806,-3.842472,ES,MADRID,BOADILLA DEL MONTE,"CARRETERA M-511 KM. 6,5",I,L-D: 24H,CEPSA,P,SP95,1.699,2023-11-21,2023-11-22
dieselogasolina.com,https://www.dieselogasolina.com/Buscador/Ficha/1285,40.802917,-4.873278,ES,ÁVILA,SAN PEDRO DEL ARROYO,"CALLE CALZADA, S/N",I,L-V: 07:00-23:00; S-D: 09:00-14:00 y 17:00-20:00,PETRONOR,P,SP95,1.669,2023-11-19,2023-11-22
dieselogasolina.com,https://www.dieselogasolina.com/Buscador/Ficha/3127,43.18125,-7.967889,ES,CORUÑA (A),CURTIS,CARRETERA N-634 KM. 659,D,L-V: 07:00-21:00; S: 08:00-15:00,CEPSA,P,GA,1.615,2023-11-20,2023-11-22
dieselogasolina.com,https://www.dieselogasolina.com/Buscador/Ficha/19817,39.591278,2.634139,ES,BALEARS (ILLES),PALMA,"CALLE CAMI DE JESUS, 10",N,L-D: 24H,SHELL,P,SP98,1.809,2023-11-20,2023-11-22
dieselogasolina.com,https://www.dieselogasolina.com/Buscador/Ficha/17798,39.607194,2.667889,ES,BALEARS (ILLES),PALMA,"GRAN VÍA ASIMA, 23",D,L-D: 24H,GALP,P,SP95,1.629,2023-11-19,2023-11-22
dieselogasolina.com,https://www.dieselogasolina.com/Buscador/Ficha/16516,41.669528,1.266667,ES,LLEIDA,CERVERA,"AVENIDA TÀRREGA, 5",D,L-D: 24H,ESCLATOIL,P,GA,1.419,2023-11-19,2023-11-22
dieselogasolina.com,https://www.dieselogasolina.com/Buscador/Ficha/3451,42.399056,2.8805,ES,GIRONA,LA JONQUERA,"CR N-2, 772,5",I,L-D: 24H,REPSOL,P,GA,1.639,2023-11-21,2023-11-22
dieselogasolina.com,https://www.dieselogasolina.com/Buscador/Ficha/14532,39.421,3.2615,ES,BALEARS (ILLES),PORTOCOLOM,"CALLE CRISTOFOR COLOM   P.COLOM, 33",I,L-S: 07:00-20:00; D: 08:00-13:00,REPSOL,P,SP95,1.687,2023-11-19,2023-11-22
dieselogasolina.com,https://www.dieselogasolina.com/Buscador/Ficha/16225,42.070167,-1.638444,ES,NAVARRA,TUDELA,"POLIGONO LAS LABRADAS VIAL ASTURIAS, 378",N,L-D: 24H,EUROCAM,P,GA,1.389,2023-11-20,2023-11-22
dieselogasolina.com,https://www.dieselogasolina.com/Buscador/Ficha/6197,42.190806,-8.72125,ES,PONTEVEDRA,CASTRO,"AVENIDA CASTRELOS, 524",D,L-D: 07:00-23:00,REPSOL,P,GA+,1.709,2023-11-21,2023-11-22
dieselogasolina.com,https://www.dieselogasolina.com/Buscador/Ficha/13057,37.421889,-6.405333,ES,HUELVA,PATERNA DEL CAMPO,"CALLE SAN ROQUE, 45",D,L-D: 07:00-21:00,OLIPATERNA,R,GA,1.467,2023-11-19,2023-11-22
dieselogasolina.com,https://www.dieselogasolina.com/Buscador/Ficha/3401,41.906194,2.853139,ES,GIRONA,CASSA DE LA SELVA,"CARRETERA C-65 KM. 22,3",I,L-V: 06:00-22:00; S: 07:00-22:00; D: 08:00-22:00,REPSOL,P,SP98,1.799,2023-11-21,2023-11-22
dieselogasolina.com,https://www.dieselogasolina.com/Buscador/Ficha/17175,39.271389,-0.464639,ES,VALENCIA / VALÈNCIA,ALGINET,"CALLE CENSAL DEL, 17",D,L-D: 24H,VCC ALGINET,P,GA,1.414,2023-11-19,2023-11-22
dieselogasolina.com,https://www.dieselogasolina.com/Buscador/Ficha/18679,42.910528,-8.518028,ES,CORUÑA (A),BALSOMA,"VÍA LUIS PASTEUR, 21/27",D,L-D: 05:30-22:30,VALCARCE,P,GB,1.369,2023-11-21,2023-11-22
dieselogasolina.com,https://www.dieselogasolina.com/Buscador/Ficha/10941,37.186389,-4.040083,ES,GRANADA,VENTA NUEVA,"CARRETERA VENTA NUEVA KM. 0,120",D,L-D: 24H,CHT,P,GB,1.209,2023-11-17,2023-11-22
dieselogasolina.com,https://www.dieselogasolina.com/Buscador/Ficha/13304,39.516778,-0.360083,ES,VALENCIA / VALÈNCIA,CASAS DE BARCENA,"LUGAR CASAS BARCENA, 2",N,L-D: 24H,REPSOL,P,GA+,1.696,2023-11-20,2023-11-22
dieselogasolina.com,https://www.dieselogasolina.com/Buscador/Ficha/14918,39.712667,2.69025,ES,BALEARS (ILLES),BUNYOLA,"CARRETERA C-711 KM. 16,5",D,L-D: 07:00-21:30,CEPSA,P,SP95,1.699,2023-11-17,2023-11-22
dieselogasolina.com,https://www.dieselogasolina.com/Buscador/Ficha/19350,40.951917,-5.650361,ES,SALAMANCA,SANTA MARTA DE TORMES,"AVENIDA PADRES PAULES, S/N",N,L-D: 24H,SUPECO,P,GA,1.419,2023-11-20,2023-11-22
dieselogasolina.com,https://www.dieselogasolina.com/Buscador/Ficha/20557,37.585611,-1.786667,ES,MURCIA,PUERTO LUMBRERAS,"CARRETERA N 340, P.K. 580,89 AUTOVÍA DE CIRCUNVALACIÓN DE PUERTO LUMBRERAS KM. 648",D,L-D: 24H,GLOBAL TANK,P,GB,1.299,2023-11-19,2023-11-22
dieselogasolina.com,https://www.dieselogasolina.com/Buscador/Ficha/1172,43.359806,-5.898833,ES,ASTURIAS,OVIEDO,"LAS MAZAS, 55 (SAN CLAUDIO)",I,L-D: 07:00-22:00,GALP,P,GA+,1.769,2023-11-14,2023-11-22
dieselogasolina.com,https://www.dieselogasolina.com/Buscador/Ficha/1554,39.586417,2.652889,ES,BALEARS (ILLES),PALMA,"CALLE CAPITAN SALOM, 31",D,L-D: 24H,REPSOL,P,SP95,1.689,2023-11-21,2023-11-22
dieselogasolina.com,https://www.dieselogasolina.com/Buscador/Ficha/12736,38.878278,-1.143722,ES,ALBACETE,ALMANSA,"AUTOVIA A-31 KM. 143,350",I,L-D: 06:00-22:00,CEPSA,P,SP98,1.709,2023-11-20,2023-11-22
dieselogasolina.com,https://www.dieselogasolina.com/Buscador/Ficha/17956,36.742667,-3.5275,ES,GRANADA,MOTRIL,"AVENIDA DE SALOBREÑA S/N PARC UE MOT13, S/N",D,L-D: 24H,BP MOTRIL,P,GA+,1.709,2023-11-21,2023-11-22
dieselogasolina.com,https://www.dieselogasolina.com/Buscador/Ficha/21140,41.55675,1.953194,ES,BARCELONA,VILADECAVALLS,CARRETERA DE TERRASSA A OLESA DE MONTSERRAT KM. S/N,D,L-D: 24H,ESCLATOIL,P,SP95,1.449,2023-11-19,2023-11-22
dieselogasolina.com,https://www.dieselogasolina.com/Buscador/Ficha/18867,41.514583,1.897944,ES,BARCELONA,ABRERA,"PASAJE TREBALL DEL, 1",D,L-D: 24H,HAM,P,GNC,1.109,2023-11-19,2023-11-22
dieselogasolina.com,https://www.dieselogasolina.com/Buscador/Ficha/8181,41.324611,-1.667611,ES,ZARAGOZA,CALATAYUD,AUTOVIA A-2 KM. 231,D,L-D: 24H,E.S. VALDEHERRERA,P,SP95,1.609,2023-11-19,2023-11-22
dieselogasolina.com,https://www.dieselogasolina.com/Buscador/Ficha/19468,42.761139,-5.137889,ES,LEÓN,VIDANES,PEDRO FERNANDEZ VALLADARES S/N,I,L-D: 00:00-00:01,FAST FUEL,P,SP95,1.519,2023-11-16,2023-11-22
dieselogasolina.com,https://www.dieselogasolina.com/Buscador/Ficha/18212,40.438611,-3.531833,ES,MADRID,COSLADA,"AVENIDA SAN PABLO, 29",D,L-D: 24H,PLENOIL,P,SP95,1.519,2023-11-18,2023-11-22
dieselogasolina.com,https://www.dieselogasolina.com/Buscador/Ficha/7733,38.90225,-0.419972,ES,VALENCIA / VALÈNCIA,POBLA DEL DUC (LA),"CARRETERA VV-1022 KM. 9,2",I,L-V: 06:00-22:00; S-D: 24H,CEPSA,P,GB,1.249,2023-11-20,2023-11-22
dieselogasolina.com,https://www.dieselogasolina.com/Buscador/Ficha/17671,41.529972,2.435889,ES,BARCELONA,MATARO,"AVENIDA MARESME, 1",I,L-D: 24H,BP ESTACION SERVICIO MATARO,P,SP98,1.811,2023-11-20,2023-11-22
dieselogasolina.com,https://www.dieselogasolina.com/Buscador/Ficha/14186,42.540361,-5.575,ES,LEÓN,ONZONILLA,"POLIGONO INDUSTRIAL C/3 G-7B, S/N",D,L-D: 24H,"GASOLEOS ARIAS MARTINEZ, S.L.",P,SP95,1.549,2023-11-20,2023-11-22
dieselogasolina.com,https://www.dieselogasolina.com/Buscador/Ficha/15934,36.606778,-6.200583,ES,CÁDIZ,PUERTO DE SANTA MARIA (EL),"CALLE ALFRED NOBEL, 9",D,L-D: 24H,CLC CALIDAD LOW COST,P,SP95,1.529,2023-11-20,2023-11-22
dieselogasolina.com,https://www.dieselogasolina.com/Buscador/Ficha/12403,28.370083,-16.7925,ES,SANTA CRUZ DE TENERIFE,GARACHICO,"CR ICOD-BUENAVISTA, KM. 8,9",I,L-D: 06:00-22:00,E.S. CEPSA LA CALETA,P,SP98,1.374,2023-11-19,2023-11-22
dieselogasolina.com,https://www.dieselogasolina.com/Buscador/Ficha/15876,38.303611,-0.521389,ES,ALICANTE,ALICANTE/ALACANT,"AVENIDA ELCHE, 150",I,L-D: 24H,PETROPRIX,P,SP95,1.557,2023-11-20,2023-11-22
dieselogasolina.com,https://www.dieselogasolina.com/Buscador/Ficha/13185,43.388417,-3.685028,ES,CANTABRIA,HOZNAYO,CARRETERA N-634 KM. 195,I,L-D: 24H,REPSOL,P,GA,1.649,2023-11-19,2023-11-22
dieselogasolina.com,https://www.dieselogasolina.com/Buscador/Ficha/15945,37.417806,-5.975028,ES,SEVILLA,SEVILLA,"CALLE SIERRA PARQUE SIERRA CASTRIL, S/N",N,L-D: 24H,CARREFOUR,P,SP95,1.639,2023-11-20,2023-11-22
dieselogasolina.com,https://www.dieselogasolina.com/Buscador/Ficha/17649,43.339306,-1.78225,ES,GIPUZKOA,IRUN,"AVENIDA NAVARRA, 18",N,L-D: 06:00-22:00,BP IRÚN,P,SP95,1.649,2023-11-21,2023-11-22
dieselogasolina.com,https://www.dieselogasolina.com/Buscador/Ficha/16910,38.045306,-3.48375,ES,JAÉN,CANENA,"CALLE DECARADAS DE CANENA, S/N",N,L-D: 06:30-21:00,COOPERATIVA SAN ISIDRO,R,GA,1.48,2023-11-20,2023-11-22
dieselogasolina.com,https://www.dieselogasolina.com/Buscador/Ficha/14940,40.609611,-0.094556,ES,CASTELLÓN / CASTELLÓ,MORELLA,"CARRETERA N-232 KM. 63,5",D,L-D: 07:00-21:00,PETRONOR,P,SP95,1.599,2023-11-19,2023-11-22
dieselogasolina.com,https://www.dieselogasolina.com/Buscador/Ficha/4675,40.302111,-3.906306,ES,MADRID,ARROYOMOLINOS,"FRESADORES, 19",N,L-D: 24H,REPSOL,P,GA+,1.628,2023-11-20,2023-11-22
dieselogasolina.com,https://www.dieselogasolina.com/Buscador/Ficha/8162,41.312611,-2.001333,ES,ZARAGOZA,ARIZA,"AUTOVIA A-2 KM. 197,3",I,L-D: 24H,CEPSA,P,GA+,1.729,2023-11-21,2023-11-22
dieselogasolina.com,https://www.dieselogasolina.com/Buscador/Ficha/20925,37.640111,-1.614889,ES,MURCIA,LORCA,CTRA. LORCA A PUNTAS DE CALNEGRE KM 4.100,D,L-D: 07:00-22:30,EE.SS AGUADERAS,P,SP95,1.66,2023-11-19,2023-11-22
dieselogasolina.com,https://www.dieselogasolina.com/Buscador/Ficha/14721,39.600639,2.65825,ES,BALEARS (ILLES),PALMA,"CALLE GREMI CIRUGIANS I BARBERS, 11",D,L-D: 24H,PETROEST,P,SP95,1.599,2023-11-19,2023-11-22
dieselogasolina.com,https://www.dieselogasolina.com/Buscador/Ficha/9472,28.052556,-16.645528,ES,SANTA CRUZ DE TENERIFE,ARONA,"AUTOPISTA TF-1 KM 65,5",I,L-D: 06:00-22:00,SHELL ARONA,P,GA+,1.399,2023-11-19,2023-11-22
dieselogasolina.com,https://www.dieselogasolina.com/Buscador/Ficha/4011,41.978278,0.490083,ES,HUESCA,ESTOPIÑAN,"CARRETERA N-230 KM 48,300 KM. 48,300",D,L-J: 07:00-21:00; V: 06:00-22:00,CEPSA,P,SP95,1.596,2023-11-08,2023-11-22
dieselogasolina.com,https://www.dieselogasolina.com/Buscador/Ficha/2473,36.609,-6.216556,ES,CÁDIZ,PUERTO DE SANTA MARIA (EL),"CR N-IV, KM.  649.8",I,L-D: 24H,BP PUERTO STA. MARIA,P,SP95,1.629,2023-11-21,2023-11-22
dieselogasolina.com,https://www.dieselogasolina.com/Buscador/Ficha/4038,42.131611,-0.417278,ES,HUESCA,HUESCA,"AVENIDA MARTINEZ DE VELASCO, 53",D,L-D: 24H,REPSOL,P,GLP,0.945,2023-11-21,2023-11-22
dieselogasolina.com,https://www.dieselogasolina.com/Buscador/Ficha/17052,42.404333,-8.583556,ES,PONTEVEDRA,TOURON,"POLIGONO O CAMPIÑO, 6",D,L-D: 07:00-23:00,JLLOWCOST,P,SP95,1.589,2023-11-19,2023-11-22
dieselogasolina.com,https://www.dieselogasolina.com/Buscador/Ficha/18116,42.692917,-2.920667,ES,ARABA/ÁLAVA,RIBABELLOSA,"AVENIDA ALAVA, 12",D,L-D: 24H,EESS DYNEFF,P,GA+,1.739,2023-11-10,2023-11-22
dieselogasolina.com,https://www.dieselogasolina.com/Buscador/Ficha/20442,43.305389,-5.68825,ES,ASTURIAS,"FELGUERA (LANGREO), LA","CALLE PEPITA FERNANDEZ DURO  EN  FELGUERA LA, 30",D,L-D: 06:00-22:00,REPSOL,P,SP98,1.819,2023-11-21,2023-11-22
dieselogasolina.com,https://www.dieselogasolina.com/Buscador/Ficha/4979,40.814278,-3.760639,ES,MADRID,MIRAFLORES DE LA SIERRA,"CARRETERA M-610 KM. 19,8",I,L-D: 06:00-22:00,CEPSA,P,GB,1.361,2023-11-21,2023-11-22
dieselogasolina.com,https://www.dieselogasolina.com/Buscador/Ficha/10258,38.7385,-3.025528,ES,CIUDAD REAL,VILLANUEVA LOS INFANTES,"CR CR-604, 1,4",D,L-D: 06:00-22:00,CAMPSA,P,GA+,1.699,2023-11-21,2023-11-22
dieselogasolina.com,https://www.dieselogasolina.com/Buscador/Ficha/16996,39.473444,-0.514889,ES,VALENCIA / VALÈNCIA,BARRI DE PORTA,"AVENIDA COMARQUES DEL PAIS VALENCIA, 156",I,L-D: 24H,BP AMAYVI I,P,GA+,1.749,2023-11-21,2023-11-22
dieselogasolina.com,https://www.dieselogasolina.com/Buscador/Ficha/7006,41.840889,-2.044556,ES,SORIA,MATALEBRERAS,CR N-122 112,I,L-D: 06:30-22:30,REPSOL,P,SP98,1.699,2023-11-21,2023-11-22
dieselogasolina.com,https://www.dieselogasolina.com/Buscador/Ficha/6547,28.313,-16.410972,ES,SANTA CRUZ DE TENERIFE,GÜIMAR,"CALLE RIGOBERTO DIAZ MELERO, S/N",I,L-D: 06:00-22:00,SHELL GUIMAR,P,GA,1.287,2023-11-20,2023-11-22
dieselogasolina.com,https://www.dieselogasolina.com/Buscador/Ficha/17425,42.2485,3.11725,ES,GIRONA,CASTELLO D'EMPURIES,"AVENIDA JOAN CARLES, 44",D,L-D: 24H,AVANZA OIL,P,SP98,1.699,2023-11-19,2023-11-22
dieselogasolina.com,https://www.dieselogasolina.com/Buscador/Ficha/4623,40.494167,-3.388028,ES,MADRID,ALCALA DE HENARES,"N-II KM 29,000",I,L-D: 24H,GALP,P,GA,1.649,2023-11-21,2023-11-22
dieselogasolina.com,https://www.dieselogasolina.com/Buscador/Ficha/2905,38.695333,-2.691639,ES,CIUDAD REAL,VILLANUEVA DE LA FUENTE,CM 412 KM 154.8,I,L-D: 07:00-23:00,LIBRE,P,GA,1.499,2023-11-19,2023-11-22
dieselogasolina.com,https://www.dieselogasolina.com/Buscador/Ficha/15724,41.757806,-2.481417,ES,SORIA,SORIA,"AVENIDA EUROPA, 28",D,L-D: 24H,+B ENERGIAS,P,SP95,1.499,2023-11-13,2023-11-22
dieselogasolina.com,https://www.dieselogasolina.com/Buscador/Ficha/11343,42.223528,1.872722,ES,BARCELONA,GUARDIOLA DE BERGUEDA,"CARRETERA C-16 KM. 113,5",I,L-D: 06:00-22:00,"ESTACIÓ SERRA CADI, S.L.",P,GA,1.669,2023-11-19,2023-11-22
dieselogasolina.com,https://www.dieselogasolina.com/Buscador/Ficha/2696,40.663583,-0.190417,ES,CASTELLÓN / CASTELLÓ,FORCALL,"CV-14 KM 12,400",I,L-V: 08:00-20:00,E.S.MIBECOSL,P,SP98,1.709,2023-11-20,2023-11-22
dieselogasolina.com,https://www.dieselogasolina.com/Buscador/Ficha/17537,39.106722,-0.526167,ES,VALENCIA / VALÈNCIA,ALBERIC,CARRETERA CR N-340 BARCELONA-CADIZ KM 861 KM. 841,N,L-D: 24H,BP BERTA,P,GA,1.617,2023-11-20,2023-11-22
dieselogasolina.com,https://www.dieselogasolina.com/Buscador/Ficha/17238,39.385444,-0.814667,ES,VALENCIA / VALÈNCIA,YATOVA,"AVENIDA DIPUTACIÓN, 74",D,L-D: 24H,SCVA VIRGEN DESAMPARADOS,A,GA,1.579,2023-11-12,2023-11-22
dieselogasolina.com,https://www.dieselogasolina.com/Buscador/Ficha/13310,36.752222,-3.876167,ES,MÁLAGA,NERJA,"AVENIDA DE PESCIA, 3",D,L-D: 07:00-23:00,E.S NERJA,P,SP98,1.829,2023-11-15,2023-11-22
dieselogasolina.com,https://www.dieselogasolina.com/Buscador/Ficha/10923,40.705944,0.579861,ES,TARRAGONA,AMPOSTA,"CL AVENIDA DE LA RAPITA, 141",D,L: 08:00-13:30 y 16:30-20:00,REPSOL,P,GB,1.239,2023-11-20,2023-11-22
dieselogasolina.com,https://www.dieselogasolina.com/Buscador/Ficha/12217,36.908639,-6.1115,ES,SEVILLA,LEBRIJA,CARRETERA LEBRIJA-TREBUJENA CC-441 KM. 34,D,L-V: 06:00-23:00; S: 07:00-23:00; D: 09:00-22:00,REPSOL,P,GA,1.599,2023-11-21,2023-11-22
dieselogasolina.com,https://www.dieselogasolina.com/Buscador/Ficha/28,40.3585,-5.516528,ES,ÁVILA,BARCO DE AVILA (EL),"CARRETERA NACIONAL 110 KM. 335,2",D,L-D: 07:00-23:00,BELLAVISTA S.L.,P,GA,1.619,2023-11-19,2023-11-22
dieselogasolina.com,https://www.dieselogasolina.com/Buscador/Ficha/15972,42.054389,-4.559556,ES,PALENCIA,GRIJOTA,"CARRETERA C-615 PALENCIA-GUARDO KM. 2,400",D,L-V: 06:30-22:30; S-D: 07:30-22:30,CEPSA,P,SP98,1.719,2023-11-20,2023-11-22
dieselogasolina.com,https://www.dieselogasolina.com/Buscador/Ficha/10623,41.4465,1.86525,ES,BARCELONA,GELIDA,"CAMI CAN VALLS, S/N",D,L-V: 06:00-22:00; S-D: 07:00-22:00,CACENCA,P,GA,1.619,2023-11-19,2023-11-22
dieselogasolina.com,https://www.dieselogasolina.com/Buscador/Ficha/2491,36.456361,-6.218722,ES,CÁDIZ,SAN FERNANDO,CARRETERA N-IVA KM. 680,I,L-D: 07:00-23:00,CEPSA,P,GA,1.639,2023-11-21,2023-11-22
dieselogasolina.com,https://www.dieselogasolina.com/Buscador/Ficha/10618,38.285333,-6.91225,ES,BADAJOZ,OLIVA FRONTERA,CARRETERA JEREZ KM. S/N,D,L-D: 07:00-22:00,IBERDOEX,P,GA,1.569,2023-11-20,2023-11-22
dieselogasolina.com,https://www.dieselogasolina.com/Buscador/Ficha/2873,38.635528,-3.471583,ES,CIUDAD REAL,SANTA CRUZ DE MUDELA,"CARRETERA N- 4 KM. 216,9",D,L-D: 06:30-22:30,REPSOL,P,GA,1.659,2023-11-21,2023-11-22
dieselogasolina.com,https://www.dieselogasolina.com/Buscador/Ficha/16606,43.179167,-7.879917,ES,LUGO,GUITIRIZ,"CR N-6, 539,6",D,L-D: 07:00-23:00,REPSOL,P,SP95,1.569,2023-11-21,2023-11-22
dieselogasolina.com,https://www.dieselogasolina.com/Buscador/Ficha/21199,36.6755,-4.732667,ES,MÁLAGA,COIN,"CALLE GUADALQUIVIR, 1",D,L-D: 24H,CARREFOUR,P,GA,1.579,2023-11-20,2023-11-22
dieselogasolina.com,https://www.dieselogasolina.com/Buscador/Ficha/1797,41.684389,2.282833,ES,BARCELONA,GARRIGA (LA),"CL CRTA. NUEVA, 37 (N-152 KM 37,3)",D,L: 06:00-22:00,REPSOL,P,GA+,1.749,2023-11-19,2023-11-22
dieselogasolina.com,https://www.dieselogasolina.com/Buscador/Ficha/21482,37.290583,-4.778722,ES,SEVILLA,CASARICHE,"CALLE CARBONEROS, 6",D,L-D: 24H,GASOLINERA SANTA BARBARA,P,GA,1.419,2023-11-19,2023-11-22
dieselogasolina.com,https://www.dieselogasolina.com/Buscador/Ficha/4377,41.553139,0.706306,ES,LLEIDA,ARTESA DE LLEIDA,"CALLE LLEIDA, 2",D,L: 06:00-22:00,REPSOL,P,GA,1.589,2023-11-21,2023-11-22
dieselogasolina.com,https://www.dieselogasolina.com/Buscador/Ficha/21464,42.2825,-1.74225,ES,NAVARRA,VILLAFRANCA,"CAMINO CAMINO DE CAPARROSO, S/N",N,L-D: 24H,AN ENERGETICOS - VILLAFRANCA,P,GA,1.489,2023-11-19,2023-11-22
